"unite_id","unite_cu","unite_nom","unite_adresse","unite_mail_actif","unite_tph","unite_dpt","unite_zpn","unite_cu_sup","mail_departement_actif","unite_id_anonym","horaire_ouverture","latitude_wgs84","longitude_wgs84"
"7253","6914","Brigade territoriale autonome de La-Foa","95 Route Territoriale 1 98880 LA FOA","bta.la-foa@gendarmerie.interieur.gouv.fr","+687 44 87 50","988","1","aucun","corg.boe.comgendnc@gendarmerie.interieur.gouv.fr","1002536","$Lundi : 7h30-11h30 13h30-17h30$Mardi : 7h30-11h30 13h30-17h30$Mercredi : 7h30-11h30 13h30-17h30$Jeudi : 7h30-11h30 13h30-17h30$Vendredi : 7h30-11h30 13h30-17h30$Samedi : 7h30-11h30 13h30-17h30$Dimanche : 8h30-11h30 14h30-17h30$Jours Fériés : 8h30-11h30 14h30-17h30","-21.708937","165.82664"
"5943","3436","Brigade de proximité de Raon-l'Étape","15 Rue Duc Ferry III 88110 RAON L ETAPE","cob.raon-l-etape@gendarmerie.interieur.gouv.fr","03 29 41 40 17","88","1","aucun","corg.ggd88@gendarmerie.interieur.gouv.fr","1011749","$Lundi : 8h00-12h00 14h00-18h00$Mardi : 8h00-12h00 14h00-18h00$Mercredi : 8h00-12h00 14h00-18h00$Jeudi : 8h00-12h00 14h00-18h00$Vendredi : 8h00-12h00 14h00-18h00$Samedi : 8h00-12h00 14h00-18h00$Dimanche : 9h00-12h00 15h00-18h00$Jours Fériés : 9h00-12h00 15h00-18h00","48.40602","6.834757"
"5510","138","Brigade de proximité de Watten","2 Rue Vandesmet 59143 WATTEN","cob.bourbourg@gendarmerie.interieur.gouv.fr","03 21 88 30 17","59","1","aucun","corg.ggd59@gendarmerie.interieur.gouv.fr","1013519","$Lundi : 8h00-12h00$Vendredi : 8h00-12h00$Samedi : 14h00-18h00","50.82769","2.20944"
"5511","135","Brigade de proximité d'Hondschoote","14 Avenue de l'Europe 59122 HONDSCHOOTE","cob.ghyvelde@gendarmerie.interieur.gouv.fr","03 28 68 30 04","59","1","aucun","corg.ggd59@gendarmerie.interieur.gouv.fr","1013522","$Mercredi : 8h00-12h00 14h00-18h00$Vendredi : 8h00-12h00 14h00-18h00","50.97606","2.58273"
"5512","3845","Brigade de proximité de Saint-Pierre-le-Moûtier","2 Rue du Colonel Arnaud BELTRAME 58240 ST PIERRE LE MOUTIER","cob.st-pierre-le-moutier@gendarmerie.interieur.gouv.fr","03 86 90 77 70","58","1","aucun","corg.ggd58@gendarmerie.interieur.gouv.fr","1012772","$Lundi : 8h00-12h00 14h00-18h00$Mardi : 8h00-12h00 14h00-18h00$Mercredi : 8h00-12h00 14h00-18h00$Jeudi : 8h00-12h00 14h00-18h00$Vendredi : 8h00-12h00 14h00-18h00$Samedi : 8h00-12h00 14h00-18h00$Dimanche : 9h00-12h00 15h00-18h00$Jours Fériés : 9h00-12h00 15h00-18h00","46.78365","3.11707"
"5509","3844","Brigade de proximité de Saint-Benin-d'Azy","16 Avenue Pierre Petit 58270 ST BENIN D AZY","cob.imphy@gendarmerie.interieur.gouv.fr","03 86 58 40 74","58","1","aucun","corg.ggd58@gendarmerie.interieur.gouv.fr","1012770","$Mercredi : 8h00-12h00","46.99991","3.39449"
"7251","6915","Brigade territoriale autonome de Boulouparis","Village BP 38 72 Voie Urbaine 18 98812 BOULOUPARIS","bta.boulouparis@gendarmerie.interieur.gouv.fr","+687 44 88 35","988","1","aucun","corg.boe.comgendnc@gendarmerie.interieur.gouv.fr","1002537","$Lundi : 7h30-11h30 13h30-17h30$Mardi : 7h30-11h30 13h30-17h30$Mercredi : 7h30-11h30 13h30-17h30$Jeudi : 7h30-11h30 13h30-17h30$Vendredi : 7h30-11h30 13h30-17h30$Samedi : 7h30-11h30 13h30-17h30$Dimanche : 8h30-11h30 14h30-17h30$Jours Fériés : 8h30-11h30 14h30-17h30","-21.867205","166.0482"
"7250","6866","Brigade de proximité de Saint-Paul","60 Rue Olive Lemarchand 97460 ST PAUL","cob.st-paul@gendarmerie.interieur.gouv.fr","+262 2 62 45 45 45","974","1","aucun","corg.boe.comgendre@gendarmerie.interieur.gouv.fr","1002302","$Lundi : 8h00-12h00 14h00-18h00$Mardi : 8h00-12h00 14h00-18h00$Mercredi : 8h00-12h00 14h00-18h00$Jeudi : 8h00-12h00 14h00-18h00$Vendredi : 8h00-12h00 14h00-18h00$Samedi : 8h00-12h00 14h00-18h00$Dimanche : 9h00-12h00 15h00-18h00$Jours Fériés : 9h00-12h00 15h00-18h00","-20.98222","55.286686"
"7248","5494","Brigade territoriale autonome d'Amboise","1 Boulevard Anatole France 37400 AMBOISE","bta.amboise@gendarmerie.interieur.gouv.fr","02 47 30 63 70","37","1","aucun","corg.ggd37@gendarmerie.interieur.gouv.fr","1008201","$Lundi : 8h00-12h00 14h00-19h00$Mardi : 8h00-12h00 14h00-19h00$Mercredi : 8h00-12h00 14h00-19h00$Jeudi : 8h00-12h00 14h00-19h00$Vendredi : 8h00-12h00 14h00-19h00$Samedi : 8h00-12h00 14h00-19h00$Dimanche : 9h00-12h00 15h00-18h00$Jours Fériés : 9h00-12h00 15h00-18h00","47.41932","0.98244"
"5977","2738","Brigade territoriale autonome de Voreppe","Caserne Colonel Arnaud BELTRAME 55 Rue du Peuil 38340 VOREPPE","bta.voreppe@gendarmerie.interieur.gouv.fr","04 76 50 22 17","38","1","aucun","corg.ggd38@gendarmerie.interieur.gouv.fr","1008941","$Lundi : 8h00-12h00 14h00-18h00$Mardi : 8h00-12h00 14h00-18h00$Mercredi : 8h00-12h00 14h00-18h00$Jeudi : 8h00-12h00 14h00-18h00$Vendredi : 8h00-12h00 14h00-18h00$Samedi : 8h00-12h00 14h00-18h00$Dimanche : 9h00-12h00 15h00-18h00$Jours Fériés : 9h00-12h00 15h00-18h00","45.27814","5.64859"
"5978","3649","Brigade de proximité de Carignan","72 Avenue de Blagny 08110 CARIGNAN","cob.carignan@gendarmerie.interieur.gouv.fr","03 24 22 09 22","08","1","aucun","corg.ggd08@gendarmerie.interieur.gouv.fr","1012417","$Lundi : 8h00-12h00 14h00-18h00$Mardi : 8h00-12h00 14h00-18h00$Mercredi : 8h00-12h00 14h00-18h00$Jeudi : 8h00-12h00 14h00-18h00$Vendredi : 8h00-12h00 14h00-18h00$Samedi : 8h00-12h00 14h00-18h00$Dimanche : 9h00-12h00 15h00-18h00$Jours Fériés : 9h00-12h00 15h00-18h00","49.62737","5.17508"
"5447","3860","Brigade de proximité de Lormes","9 Rue du Pont-National 58140 LORMES","cob.corbigny@gendarmerie.interieur.gouv.fr","03 86 22 87 89","58","1","aucun","corg.ggd58@gendarmerie.interieur.gouv.fr","1012786","$Jeudi : 8h00-12h00","47.28868","3.819"
"5448","5182","Brigade territoriale autonome d'Égly","9 Allée des Joncs 91520 EGLY","bta.egly@gendarmerie.interieur.gouv.fr","01 64 90 00 64","91","1","aucun","corg.ggd91@gendarmerie.interieur.gouv.fr","1003343","$Lundi : 8h00-12h00 14h00-19h00$Mardi : 8h00-12h00 14h00-19h00$Mercredi : 8h00-12h00 14h00-19h00$Jeudi : 8h00-12h00 14h00-19h00$Vendredi : 8h00-12h00 14h00-19h00$Samedi : 8h00-12h00 14h00-19h00$Dimanche : 9h00-12h00 15h00-18h00$Jours Fériés : 9h00-12h00 15h00-18h00","48.58288","2.22301"
"5443","3794","Brigade de proximité de Mirebeau-sur-Bèze","2 Rue du Collège 21310 MIREBEAU SUR BEZE","cob.mirebeau-sur-beze@gendarmerie.interieur.gouv.fr","03 80 10 08 30","21","1","aucun","cog.ggd21@gendarmerie.interieur.gouv.fr","1012692","$Lundi : 8h00-12h00 14h00-18h00$Mardi : 8h00-12h00 14h00-18h00$Mercredi : 8h00-12h00 14h00-18h00$Jeudi : 8h00-12h00 14h00-18h00$Vendredi : 8h00-12h00 14h00-18h00$Samedi : 8h00-12h00 14h00-18h00$Dimanche : 9h00-12h00 15h00-18h00$Jours Fériés : 9h00-12h00 15h00-18h00","47.39885","5.3108"
"5444","11232","Brigade de proximité de Soisy-sur-Seine","58 Boulevard de la République 91450 SOISY SUR SEINE","cob.st-germain-les-corbeil@gendarmerie.interieur.gouv.fr","01 60 75 85 20","91","1","aucun","corg.ggd91@gendarmerie.interieur.gouv.fr","1003322","$Mardi : 8h00-12h00 14h00-18h00$Vendredi : 8h00-12h00 14h00-18h00","48.64943","2.44711"
"5445","3662","Brigade de proximité de Machault","2 Rue de la Hobette 08310 MACHAULT","cob.vouziers@gendarmerie.interieur.gouv.fr","03 24 30 31 33","08","1","aucun","corg.ggd08@gendarmerie.interieur.gouv.fr","1012429","$Lundi : 14h00-19h00$Vendredi : 8h00-12h00","49.35882","4.50484"
"5446","3803","Brigade de proximité d'Arnay-le-Duc","1 Rue de Paris 21230 ARNAY LE DUC","cob.arnay-le-duc@gendarmerie.interieur.gouv.fr","03 80 90 11 17","21","1","aucun","cog.ggd21@gendarmerie.interieur.gouv.fr","1012704","$Lundi : 8h00-12h00 14h00-18h00$Mardi : 8h00-12h00 14h00-18h00$Mercredi : 8h00-12h00 14h00-18h00$Jeudi : 8h00-12h00 14h00-18h00$Vendredi : 8h00-12h00 14h00-18h00$Samedi : 8h00-12h00 14h00-18h00$Jours Fériés : 9h00-12h00 15h00-18h00","47.13622","4.48456"
"7247","5511","Brigade de proximité de Bourgueil","10 Rue du 8 Mai 1945 37140 BOURGUEIL","cob.bourgueil@gendarmerie.interieur.gouv.fr","02 47 97 21 40","37","1","aucun","corg.ggd37@gendarmerie.interieur.gouv.fr","1008220","$Lundi : 8h00-12h00 14h00-18h00$Mardi : 8h00-12h00 14h00-18h00$Mercredi : 8h00-12h00 14h00-18h00$Jeudi : 8h00-12h00 14h00-18h00$Samedi : 8h00-12h00 14h00-18h00","47.27862","0.16286"
"4643","15639","Brigade territoriale autonome de Basse-Goulaine","80 Rue de Goulaine 44115 BASSE GOULAINE","bta.basse-goulaine@gendarmerie.interieur.gouv.fr","02 40 80 56 93","44","1","aucun","cog.ggd44@gendarmerie.interieur.gouv.fr","1007388","$Lundi : 8h00-12h00 14h00-19h00$Mardi : 8h00-12h00 14h00-19h00$Mercredi : 8h00-12h00 14h00-19h00$Jeudi : 8h00-12h00 14h00-19h00$Vendredi : 8h00-12h00 14h00-19h00$Samedi : 8h00-12h00 14h00-19h00$Dimanche : 9h00-12h00 15h00-19h00$Jours Fériés : 9h00-12h00 15h00-19h00","47.2085","-1.46128"
"6275","6910","Brigade territoriale autonome de Wallis","Île Uvea Zone de Mata'Utu 98600 UVEA","bta.wallis@gendarmerie.interieur.gouv.fr","+681 72 09 00","986","1","aucun","bta.wallis@gendarmerie.interieur.gouv.fr","1002401","$Lundi : 7h30-12h00 14h00-17h30$Mardi : 7h30-12h00 14h00-17h30$Mercredi : 7h30-12h00 14h00-17h30$Jeudi : 7h30-12h00 14h00-17h30$Vendredi : 7h30-12h00 14h00-17h30$Samedi : 7h30-12h00 14h00-17h30$Dimanche : 9h00-12h00 15h00-17h00$Jours Fériés : 9h00-12h00 15h00-17h00","-13.284264","-176.17377"
"7244","5497","Brigade de proximité de Ballan-Miré","2 Avenue de l'Orée-des-Bois 37510 BALLAN MIRE","cob.chambray-les-tours@gendarmerie.interieur.gouv.fr","02 47 68 26 90","37","1","aucun","corg.ggd37@gendarmerie.interieur.gouv.fr","1008187","$Lundi : 8h00-12h00 14h00-18h00$Mardi : 8h00-12h00 14h00-18h00$Mercredi : 8h00-12h00 14h00-18h00$Jeudi : 8h00-12h00 14h00-18h00$Vendredi : 8h00-12h00 14h00-18h00$Samedi : 8h00-12h00 14h00-18h00$Dimanche : 9h00-12h00 15h00-18h00$Jours Fériés : 9h00-12h00 15h00-18h00","47.34621","0.60935"
"7242","5480","Brigade de proximité d'Issoudun","24 Avenue Jean Bonnefont 36100 ISSOUDUN","cob.issoudun@gendarmerie.interieur.gouv.fr","02 54 03 53 20","36","1","aucun","corg.ggd36@gendarmerie.interieur.gouv.fr","1008113","$Lundi : 8h00-12h00 14h00-19h00$Mardi : 8h00-12h00 14h00-19h00$Mercredi : 8h00-12h00 14h00-19h00$Jeudi : 8h00-12h00 14h00-19h00$Vendredi : 8h00-12h00 14h00-19h00$Samedi : 8h00-12h00 14h00-19h00$Dimanche : 9h00-12h00 15h00-18h00$Jours Fériés : 9h00-12h00 15h00-18h00","46.95494","1.99437"
"5706","4371","Brigade de proximité de Valensole","6 Boulevard des Lavandes 04210 VALENSOLE","cob.greoux-les-bains@gendarmerie.interieur.gouv.fr","04 92 74 80 03","04","1","aucun","corg.ggd04@gendarmerie.interieur.gouv.fr","1010069","$Lundi : 8h00-12h00$Samedi : 14h00-18h00","43.84085","5.9858"
"5707","4392","Brigade de proximité de Banon","24 Allée Arnaud Beltrame 04150 BANON","cob.banon@gendarmerie.interieur.gouv.fr","04 92 73 20 01","04","1","aucun","corg.ggd04@gendarmerie.interieur.gouv.fr","1010071","$Lundi : 8h00-12h00$Mardi : 14h00-18h00$Mercredi : 8h00-12h00$Jeudi : 8h00-12h00$Vendredi : 8h00-12h00$Dimanche : 15h00-18h00","44.039185","5.629599"
"5708","469","Brigade territoriale autonome de Bresles","39 Rue René Coty 60510 BRESLES","bta.bresles@gendarmerie.interieur.gouv.fr","03 44 07 87 17","60","1","aucun","corg.ggd60@gendarmerie.interieur.gouv.fr","1013946","$Lundi : 8h00-12h00 14h00-19h00$Mardi : 8h00-12h00 14h00-19h00$Mercredi : 8h00-12h00 14h00-19h00$Jeudi : 8h00-12h00 14h00-19h00$Vendredi : 8h00-12h00 14h00-19h00$Samedi : 8h00-12h00 14h00-19h00$Dimanche : 9h00-12h00$Jours Fériés : 9h00-12h00","49.40772","2.24761"
"7240","5465","Brigade de proximité de Bélâbre","22 Rue Gambetta 36370 BELABRE","cob.le-blanc@gendarmerie.interieur.gouv.fr","02 54 28 44 70","36","1","aucun","corg.ggd36@gendarmerie.interieur.gouv.fr","1008142","$Mardi : 14h00-18h00$Samedi : 14h00-18h00","46.5525","1.16022"
"7241","5468","Brigade de proximité de Saint-Gaultier","22 Place du Champ-de-Foire 36800 ST GAULTIER","cob.le-blanc@gendarmerie.interieur.gouv.fr","02 54 24 67 20","36","1","aucun","corg.ggd36@gendarmerie.interieur.gouv.fr","1008143","$Lundi : 14h00-18h00$Vendredi : 8h00-12h00$Samedi : 8h00-12h00","46.63455","1.41845"
"7238","5369","Brigade de proximité de Baugy","4 Rue du Colonel Beltrame 18800 BAUGY","cob.baugy@gendarmerie.interieur.gouv.fr","02 48 23 23 15","18","1","aucun","corg.ggd18@gendarmerie.interieur.gouv.fr","1007959","$Lundi : 8h00-12h00 14h00-18h00$Mardi : 8h00-12h00 14h00-18h00$Mercredi : 8h00-12h00 14h00-18h00$Jeudi : 8h00-12h00 14h00-18h00$Vendredi : 8h00-12h00 14h00-18h00$Samedi : 8h00-12h00 14h00-18h00$Dimanche : 9h00-12h00 15h00-18h00$Jours Fériés : 9h00-12h00 15h00-18h00","47.08156","2.73489"
"7239","5438","Brigade de proximité de Senonches","Rue de la Pyramide 28250 SENONCHES","cob.brezolles@gendarmerie.interieur.gouv.fr","02 37 37 36 85","28","1","aucun","corg.ggd28@gendarmerie.interieur.gouv.fr","1008066","$Lundi : 8h00-12h00 14h00-19h00$Mardi : 8h00-12h00 14h00-19h00$Jeudi : 8h00-12h00 14h00-19h00$Vendredi : 8h00-12h00 14h00-19h00$Jours Fériés : 9h00-12h00 15h00-18h00","48.55764","1.03212"
"7237","6925","Brigade territoriale autonome de Yaté","Village 98834 YATE","bta.yate@gendarmerie.interieur.gouv.fr","+687 44 87 80","988","1","aucun","corg.boe.comgendnc@gendarmerie.interieur.gouv.fr","1002531","$Lundi : 7h30-12h00$Mercredi : 7h30-12h00$Samedi : 7h30-12h00","-22.16037","166.94336"
"62","271","Brigade territoriale autonome de Neufchâtel-Hardelot","86 Rue des Allées 62152 NEUFCHATEL HARDELOT","bta.neufchatel-hardelot@gendarmerie.interieur.gouv.fr","03 21 83 77 17","62","1","aucun","corg.ggd62@gendarmerie.interieur.gouv.fr","1013632","$Lundi : 8h00-12h00 14h00-18h00$Mardi : 8h00-12h00 14h00-18h00$Mercredi : 8h00-12h00 14h00-18h00$Jeudi : 8h00-12h00 14h00-18h00$Vendredi : 8h00-12h00 14h00-18h00$Samedi : 8h00-12h00 14h00-18h00$Dimanche : 9h00-12h00 15h00-18h00$Jours Fériés : 9h00-12h00 15h00-18h00","50.61967","1.64463"
"7236","5300","Brigade de proximité de Villiers-Saint-Georges","24 Rue de Sancy 77560 VILLIERS ST GEORGES","cob.provins@gendarmerie.interieur.gouv.fr","01 64 60 26 10","77","1","aucun","corg.ggd77@gendarmerie.interieur.gouv.fr","1003508","$Lundi : 8h00-12h00$Mardi : 8h00-12h00$Mercredi : 8h00-12h00$Jeudi : 8h00-12h00$Vendredi : 8h00-12h00$Samedi : 8h00-12h00$Dimanche : 9h00-12h00$Jours Fériés : 9h00-12h00","48.65262","3.405069"
"5508","3838","Brigade de proximité de Decize","105 Avenue de Verdun 58300 DECIZE","cob.decize@gendarmerie.interieur.gouv.fr","03 86 77 37 10","58","1","aucun","corg.ggd58@gendarmerie.interieur.gouv.fr","1012765","$Lundi : 8h00-12h00 14h00-18h00$Mardi : 8h00-12h00 14h00-18h00$Mercredi : 8h00-12h00 14h00-18h00$Jeudi : 8h00-12h00 14h00-18h00$Vendredi : 8h00-12h00 14h00-18h00$Samedi : 8h00-12h00 14h00-18h00$Dimanche : 9h00-12h00 15h00-18h00$Jours Fériés : 9h00-12h00 15h00-18h00","46.8273","3.47812"
"67","295","Brigade de proximité de Campagne-lès-Hesdin","Rue Saint-André 62870 CAMPAGNE LES HESDIN","cob.marconne@gendarmerie.interieur.gouv.fr","03 21 90 33 17","62","1","aucun","corg.ggd62@gendarmerie.interieur.gouv.fr","1013651","$Mardi : 8h00-12h00$Mercredi : 8h00-12h00$Samedi : 8h00-12h00","50.39759","1.88261"
"7235","16678","Brigade territoriale autonome de Cély","9 Rue Edouard Goerg 77930 CELY EN BIERE","bta.cely@gendarmerie.interieur.gouv.fr","01 64 81 90 85","77","1","aucun","corg.ggd77@gendarmerie.interieur.gouv.fr","1003486","$Lundi : 8h00-12h00 14h00-19h00$Mardi : 8h00-12h00 14h00-19h00$Mercredi : 8h00-12h00 14h00-19h00$Jeudi : 8h00-12h00 14h00-19h00$Vendredi : 8h00-12h00 14h00-19h00$Samedi : 8h00-12h00 14h00-19h00$Dimanche : 9h00-12h00 15h00-18h00$Jours Fériés : 9h00-12h00 15h00-18h00","48.45886","2.52766"
"7234","5215","Brigade territoriale autonome de Vigny","50 Rue Beaudouin 95450 VIGNY","bta.vigny@gendarmerie.interieur.gouv.fr","01 34 67 89 89","95","1","aucun","corg.ggd95@gendarmerie.interieur.gouv.fr","1003399","$Lundi : 8h00-12h00 14h00-19h00$Mardi : 8h00-12h00 14h00-19h00$Mercredi : 8h00-12h00 14h00-19h00$Jeudi : 8h00-12h00 14h00-19h00$Vendredi : 8h00-12h00 14h00-19h00$Samedi : 8h00-12h00 14h00-19h00$Dimanche : 9h00-12h00 15h00-18h00$Jours Fériés : 9h00-12h00 15h00-18h00","49.07888","1.92203"
"7232","5192","Brigade de proximité de Gif-sur-Yvette","16 Rue Raoul Dautry 91190 GIF SUR YVETTE","cob.gif-sur-yvette@gendarmerie.interieur.gouv.fr","01 69 07 76 41","91","1","aucun","corg.ggd91@gendarmerie.interieur.gouv.fr","1003345","$Lundi : 9h00-12h00 14h00-19h00$Mardi : 9h00-12h00 14h00-19h00$Mercredi : 9h00-12h00 14h00-19h00$Jeudi : 9h00-12h00 14h00-19h00$Vendredi : 9h00-12h00 14h00-19h00$Samedi : 9h00-12h00 14h00-19h00$Dimanche : 9h00-12h00 15h00-18h00$Jours Fériés : 9h00-12h00 15h00-18h00","48.6993","2.13719"
"7233","13555","Brigade territoriale autonome de Méry-sur-Oise","4 Avenue Marcel Perrin 95540 MERY SUR OISE","bta.mery-sur-oise@gendarmerie.interieur.gouv.fr","01 30 36 06 00","95","1","aucun","corg.ggd95@gendarmerie.interieur.gouv.fr","1003398","$Lundi : 8h00-12h00 15h00-19h00$Mardi : 8h00-12h00 15h00-19h00$Mercredi : 8h00-12h00 15h00-19h00$Jeudi : 8h00-12h00 15h00-19h00$Vendredi : 8h00-12h00 15h00-19h00$Samedi : 8h00-12h00 15h00-19h00$Dimanche : 9h00-12h00 15h00-18h00$Jours Fériés : 9h00-12h00 15h00-18h00","49.06657","2.18172"
"82","319","Brigade de proximité d'Heuchin","Rue Planque-Saint-Jean 62134 HEUCHIN","cob.st-pol-sur-ternoise@gendarmerie.interieur.gouv.fr","03 21 04 62 17","62","1","aucun","corg.ggd62@gendarmerie.interieur.gouv.fr","1013677","$Mardi : 9h00-12h00 14h00-18h00","50.47391","2.27006"
"7230","7038","Brigade de proximité d'Aléria","50 Cours Charles-Jean Sarocchi 20270 ALERIA","cob.aleria@gendarmerie.interieur.gouv.fr","04 95 57 00 17","2B","1","aucun","corg.ggd2b@gendarmerie.interieur.gouv.fr","1011287","$Lundi : 8h00-12h00 14h00-18h00$Mardi : 8h00-12h00 14h00-18h00$Mercredi : 8h00-12h00 14h00-18h00$Jeudi : 8h00-12h00 14h00-18h00$Vendredi : 8h00-12h00 14h00-18h00$Samedi : 8h00-12h00 14h00-18h00$Dimanche : 9h00-12h00 15h00-18h00$Jours Fériés : 9h00-12h00 15h00-18h00","42.1149","9.51286"
"7231","5121","Brigade territoriale autonome d'Ecquevilly","21 Rue Bel-Air 78920 ECQUEVILLY","bta.ecquevilly@gendarmerie.interieur.gouv.fr","01 34 75 50 04","78","1","aucun","corg.ggd78@gendarmerie.interieur.gouv.fr","1003277","$Lundi : 8h00-12h00 14h00-19h00$Mardi : 8h00-12h00 14h00-19h00$Mercredi : 8h00-12h00 14h00-19h00$Jeudi : 8h00-12h00 14h00-19h00$Vendredi : 8h00-12h00 14h00-19h00$Samedi : 8h00-12h00 14h00-19h00$Dimanche : 9h00-12h00 15h00-18h00$Jours Fériés : 9h00-12h00 15h00-18h00","48.95293","1.91801"
"6071","6942","Brigade territoriale autonome de Houaïlou","Village Lotissement 14 98816 HOUAILOU","bta.houailou@gendarmerie.interieur.gouv.fr","+687 44 87 90","988","1","aucun","corg.boe.comgendnc@gendarmerie.interieur.gouv.fr","1002558","$Lundi : 7h30-11h30 13h30-17h30$Mardi : 7h30-11h30 13h30-17h30$Mercredi : 7h30-11h30 13h30-17h30$Jeudi : 7h30-11h30 13h30-17h30$Vendredi : 7h30-11h30 13h30-17h30$Samedi : 7h30-11h30 13h30-17h30$Dimanche : 9h00-12h00 15h00-18h00$Jours Fériés : 9h00-12h00 15h00-18h00","-21.277273","165.62808"
"6072","6940","Brigade territoriale autonome de Poindimié","Village 68 Voie Urbaine 13 98822 POINDIMIE","bta.poindimie@gendarmerie.interieur.gouv.fr","+687 47 89 00","988","1","aucun","corg.boe.comgendnc@gendarmerie.interieur.gouv.fr","1002556","$Lundi : 7h30-11h30 13h30-17h30$Mardi : 7h30-11h30 13h30-17h30$Mercredi : 7h30-11h30 13h30-17h30$Jeudi : 7h30-11h30 13h30-17h30$Vendredi : 7h30-11h30 13h30-17h30$Samedi : 7h30-11h30 13h30-17h30$Dimanche : 9h00-12h00 14h30-17h30$Jours Fériés : 9h00-12h00 14h30-17h30","-20.9362","165.33118"
"4210","4826","Brigade territoriale autonome de Canet-en-Roussillon","1 Voie Florence Arthaud 66140 CANET EN ROUSSILLON","bta.canet-en-roussillon@gendarmerie.interieur.gouv.fr","04 68 80 21 07","66","1","aucun","corg.ggd66@gendarmerie.interieur.gouv.fr","1011039","$Lundi : 8h00-12h00 14h00-18h00$Mardi : 8h00-12h00 14h00-18h00$Mercredi : 8h00-12h00 14h00-18h00$Jeudi : 8h00-12h00 14h00-18h00$Vendredi : 8h00-12h00 14h00-18h00$Samedi : 8h00-12h00 14h00-18h00$Dimanche : 9h00-12h00 15h00-18h00$Jours Fériés : 9h00-12h00 15h00-18h00","42.70194","3.02965"
"7224","4828","Brigade de proximité de Latour-de-France","11 Rue Joseph Mouné 66720 LATOUR DE FRANCE","cob.latour-de-france@gendarmerie.interieur.gouv.fr","04 68 29 12 73","66","1","aucun","corg.ggd66@gendarmerie.interieur.gouv.fr","1011091","$Lundi : 8h00-12h00 14h00-18h00$Mercredi : 8h00-12h00 14h00-18h00$Vendredi : 8h00-12h00 14h00-18h00$Dimanche : 9h00-12h00","42.76567","2.65159"
"7225","4833","Brigade de proximité de Saint-Paul-de-Fenouillet","11 Chemin de la Boulzane 66220 ST PAUL DE FENOUILLET","cob.latour-de-france@gendarmerie.interieur.gouv.fr","04 68 59 00 11","66","1","aucun","corg.ggd66@gendarmerie.interieur.gouv.fr","1011092","$Mardi : 8h00-12h00 14h00-18h00$Jeudi : 8h00-12h00 14h00-18h00$Samedi : 8h00-12h00 14h00-18h00$Dimanche : 15h00-18h00","42.80763","2.49881"
"7226","4899","Brigade territoriale autonome de Porto-Vecchio","Caserne Graziani Rue du Général Colona-d'Istria 20137 PORTO VECCHIO","bta.porto-vecchio@gendarmerie.interieur.gouv.fr","04 95 70 00 17","2A","1","aucun","cog.ggd2a@gendarmerie.interieur.gouv.fr","1011199","$Lundi : 8h00-12h00 14h00-18h00$Mardi : 8h00-12h00 14h00-18h00$Mercredi : 8h00-12h00 14h00-18h00$Jeudi : 8h00-12h00 14h00-18h00$Vendredi : 8h00-12h00 14h00-18h00$Samedi : 8h00-12h00 14h00-18h00$Dimanche : 9h00-12h00 15h00-18h00$Jours Fériés : 9h00-12h00 15h00-18h00","41.58867","9.27426"
"4622","3825","Brigade de proximité de Saint-Seine-l'Abbaye","1 Rue Carnot 21440 ST SEINE L ABBAYE","cob.messigny-et-vantoux@gendarmerie.interieur.gouv.fr","03 80 35 04 74","21","1","aucun","cog.ggd21@gendarmerie.interieur.gouv.fr","1012690","$Lundi : 8h00-12h00$Jeudi : 8h00-12h00$Vendredi : 14h00-18h00","47.44143","4.78583"
"103","369","Brigade territoriale autonome de Saint-Valery-sur-Somme","766 Route de Ribeauvillé 80230 ST VALERY SUR SOMME","bta.st-valery-sur-somme@gendarmerie.interieur.gouv.fr","03 22 60 12 17","80","1","aucun","corg.ggd80@gendarmerie.interieur.gouv.fr","1013872","$Lundi : 8h00-12h00 14h00-19h00$Mardi : 8h00-12h00 14h00-19h00$Mercredi : 8h00-12h00 14h00-19h00$Jeudi : 8h00-12h00 14h00-19h00$Vendredi : 8h00-12h00 14h00-19h00$Samedi : 8h00-12h00 14h00-19h00$Dimanche : 9h00-12h00 15h00-18h00$Jours Fériés : 9h00-12h00 15h00-18h00","50.17412","1.62781"
"5324","4734","Brigade territoriale autonome de Saint-Gilles (30)","19 Rue des Muscats 30800 ST GILLES","bta.st-gilles30@gendarmerie.interieur.gouv.fr","04 66 87 10 00","30","1","aucun","corg.ggd30@gendarmerie.interieur.gouv.fr","1010871","$Lundi : 8h00-12h00 14h00-19h00$Mardi : 8h00-12h00 14h00-19h00$Mercredi : 8h00-12h00 14h00-19h00$Jeudi : 8h00-12h00 14h00-19h00$Vendredi : 8h00-12h00 14h00-19h00$Samedi : 8h00-12h00 14h00-19h00$Dimanche : 9h00-12h00 15h00-19h00$Jours Fériés : 9h00-12h00 15h00-19h00","43.67708","4.41764"
"5325","4757","Brigade de proximité de Saint-Ambroix","100 Chemin de la Carrière 30500 ST AMBROIX","cob.st-ambroix@gendarmerie.interieur.gouv.fr","04 66 24 00 40","30","1","aucun","corg.ggd30@gendarmerie.interieur.gouv.fr","1010889","$Lundi : 8h00-12h00 14h00-18h00$Mardi : 8h00-12h00 14h00-18h00$Mercredi : 8h00-12h00 14h00-18h00$Jeudi : 8h00-12h00 14h00-18h00$Vendredi : 8h00-12h00 14h00-18h00$Samedi : 8h00-12h00 14h00-18h00$Dimanche : 9h00-12h00 15h00-18h00$Jours Fériés : 9h00-12h00 15h00-18h00","44.27777","4.19776"
"7223","4859","Brigade de proximité d'Olette","7 Rue Fusterie 66360 OLETTE","cob.prades@gendarmerie.interieur.gouv.fr","04 68 97 01 09","66","1","aucun","corg.ggd66@gendarmerie.interieur.gouv.fr","1011070","$Lundi : 8h00-12h00","42.55636","2.26999"
"7219","4803","Brigade de proximité de Gorges-du-Tarn-Causses","Route de Meyrueis STE ENIMIE 48210 GORGES DU TARN CAUSSES","cob.meyrueis@gendarmerie.interieur.gouv.fr","04 66 48 50 03","48","1","aucun","corg.ggd48@gendarmerie.interieur.gouv.fr","1011002","$Jeudi : 8h00-12h00 14h00-18h00","44.36373","3.41247"
"7220","4829","Brigade territoriale autonome de Millas","1 Rue Louis Noguères 66170 MILLAS","bta.millas@gendarmerie.interieur.gouv.fr","04 68 57 10 20","66","1","aucun","corg.ggd66@gendarmerie.interieur.gouv.fr","1011043","$Lundi : 8h00-12h00 14h00-18h00$Mardi : 8h00-12h00 14h00-18h00$Mercredi : 8h00-12h00 14h00-18h00$Jeudi : 8h00-12h00 14h00-18h00$Vendredi : 8h00-12h00 14h00-18h00$Samedi : 8h00-12h00 14h00-18h00$Dimanche : 9h00-12h00 15h00-18h00$Jours Fériés : 9h00-12h00 15h00-18h00","42.69274","2.68464"
"5700","391","Brigade de proximité de Chaulnes","6 Rue de Pertain 80320 CHAULNES","cob.chaulnes@gendarmerie.interieur.gouv.fr","03 22 86 30 17","80","1","aucun","corg.ggd80@gendarmerie.interieur.gouv.fr","1013903","$Lundi : 8h00-12h00 14h00-19h00$Mardi : 8h00-12h00 14h00-19h00$Mercredi : 8h00-12h00 14h00-19h00$Jeudi : 8h00-12h00 14h00-19h00$Vendredi : 8h00-12h00 14h00-19h00$Samedi : 8h00-12h00 14h00-19h00$Dimanche : 9h00-12h00 15h00-18h00$Jours Fériés : 9h00-12h00 15h00-18h00","49.81541","2.80809"
"5456","3688","Brigade de proximité de Lusigny-sur-Barse","58 Avenue du 28 Août 1944 10270 LUSIGNY SUR BARSE","cob.lusigny-sur-barse@gendarmerie.interieur.gouv.fr","03 25 41 20 09","10","1","aucun","corg.ggd10@gendarmerie.interieur.gouv.fr","1012480","$Lundi : 8h00-12h00 14h00-19h00$Mardi : 8h00-12h00 14h00-19h00$Mercredi : 8h00-12h00 14h00-19h00$Jeudi : 8h00-12h00 14h00-19h00$Vendredi : 8h00-12h00 14h00-19h00$Samedi : 8h00-12h00 14h00-19h00$Dimanche : 9h00-12h00 15h00-18h00$Jours Fériés : 9h00-12h00 15h00-18h00","48.25024","4.26467"
"7216","4809","Brigade de proximité de La-Canourgue","Avenue des Gorges-du-Tarn 48500 LA CANOURGUE","cob.marvejols@gendarmerie.interieur.gouv.fr","04 66 32 80 04","48","1","aucun","corg.ggd48@gendarmerie.interieur.gouv.fr","1010977","$Mardi : 8h00-12h00 14h00-18h00","44.43031","3.21568"
"7217","4831","Brigade territoriale autonome de Saint-Cyprien","Pas de la Prade-Sud 66750 ST CYPRIEN","bta.st-cyprien@gendarmerie.interieur.gouv.fr","04 68 21 00 19","66","1","aucun","corg.ggd66@gendarmerie.interieur.gouv.fr","1011044","$Lundi : 8h00-12h00 14h00-19h00$Mardi : 8h00-12h00 14h00-19h00$Mercredi : 8h00-12h00 14h00-19h00$Jeudi : 8h00-12h00 14h00-19h00$Vendredi : 8h00-12h00 14h00-19h00$Samedi : 8h00-12h00 14h00-19h00$Dimanche : 9h00-12h00 15h00-19h00$Jours Fériés : 9h00-12h00 15h00-19h00","42.62205","3.01137"
"5278","4837","Brigade de proximité de Céret","4 Boulevard Simon Battle 66400 CERET","cob.ceret@gendarmerie.interieur.gouv.fr","04 68 68 48 10","66","1","aucun","corg.ggd66@gendarmerie.interieur.gouv.fr","1011051","$Lundi : 8h00-12h00 14h00-18h00$Mardi : 8h00-12h00 14h00-18h00$Mercredi : 8h00-12h00 14h00-18h00$Jeudi : 8h00-12h00 14h00-18h00$Vendredi : 8h00-12h00 14h00-18h00$Samedi : 8h00-12h00 14h00-18h00$Dimanche : 9h00-12h00 15h00-18h00$Jours Fériés : 9h00-12h00 15h00-18h00","42.48408","2.74401"
"5279","4842","Brigade de proximité d'Arles-sur-Tech","25 Avenue Louis Moli 66150 ARLES SUR TECH","cob.ceret@gendarmerie.interieur.gouv.fr",,"66","1","aucun","corg.ggd66@gendarmerie.interieur.gouv.fr","1011052","$Lundi : 8h00-12h00 14h00-18h00$Mardi : 8h00-12h00 14h00-18h00$Jeudi : 8h00-12h00 14h00-18h00$Vendredi : 8h00-12h00 14h00-18h00","42.4544","2.63517"
"7213","17291","Brigade de proximité de Cornillon","1390 Route de Cornillon 30630 CORNILLON","cob.pont-st-esprit@gendarmerie.interieur.gouv.fr","04 66 82 20 25","30","1","aucun","corg.ggd30@gendarmerie.interieur.gouv.fr","1010901","$Samedi : 8h00-12h00","44.21883","4.48515"
"7210","4735","Brigade de proximité de Saint-Mamert-du-Gard","2 Rue Nelson Mandela 30730 ST MAMERT DU GARD","cob.st-chaptes@gendarmerie.interieur.gouv.fr","04 66 81 10 33","30","1","aucun","corg.ggd30@gendarmerie.interieur.gouv.fr","1010884","$Mercredi : 8h00-12h00 14h00-18h00$Vendredi : 8h00-12h00 14h00-18h00$Jours Fériés : 9h00-12h00 15h00-18h00","43.89226","4.19653"
"7211","4748","Brigade de proximité de Saint-Martin-de-Valgalgues","Montée Colonel Arnaud BELTRAME 30520 ST MARTIN DE VALGALGUES","cob.salindres@gendarmerie.interieur.gouv.fr","04 66 86 00 69","30","1","aucun","corg.ggd30@gendarmerie.interieur.gouv.fr","1010887","$Lundi : 8h00-12h00$Mardi : 8h00-12h00$Mercredi : 8h00-12h00$Jeudi : 8h00-12h00$Vendredi : 8h00-12h00","44.15683","4.08229"
"4621","992","Brigade de proximité de Percy-en-Normandie","2 Rue Mac Laurin Colin PERCY 50410 PERCY EN NORMANDIE","cob.tessy-bocage@gendarmerie.interieur.gouv.fr","02 33 91 37 80","50","1","aucun","corg.ggd50@gendarmerie.interieur.gouv.fr","1007103",,"48.91322","-1.19174"
"7212","71102","Brigade de proximité de Saint-Laurent-la-Vernède","22 Route de Bagnols 30330 ST LAURENT LA VERNEDE","cob.uzes@gendarmerie.interieur.gouv.fr","04 66 72 90 01","30","1","aucun","corg.ggd30@gendarmerie.interieur.gouv.fr","1010907","$Lundi : 8h00-12h00$Mercredi : 14h00-19h00$Samedi : 8h00-12h00","44.13457","4.4006424"
"7209","4767","Brigade de proximité de Saint-Chaptes","405 Rue du Stade 30190 ST CHAPTES","cob.st-chaptes@gendarmerie.interieur.gouv.fr","04 66 81 20 73","30","1","aucun","corg.ggd30@gendarmerie.interieur.gouv.fr","1010883","$Lundi : 8h00-12h00 14h00-18h00$Mardi : 8h00-12h00 14h00-18h00$Jeudi : 8h00-12h00 14h00-18h00$Samedi : 8h00-12h00 14h00-18h00$Dimanche : 9h00-12h00 15h00-18h00$Jours Fériés : 9h00-12h00 15h00-18h00","43.972523","4.271749"
"7207","4709","Brigade de proximité de Vinassan","33 bis Rue du Four à Chaux 11110 VINASSAN","cob.vinassan@gendarmerie.interieur.gouv.fr","04 68 33 50 58","11","1","aucun","corg.ggd11@gendarmerie.interieur.gouv.fr","1010813","$Lundi : 8h00-12h00 14h00-19h00$Mardi : 8h00-12h00 14h00-19h00$Jeudi : 8h00-12h00 14h00-19h00$Vendredi : 8h00-12h00 14h00-19h00$Samedi : 8h00-12h00 14h00-19h00$Dimanche : 9h00-12h00 15h00-19h00$Jours Fériés : 9h00-12h00 15h00-19h00","43.20694","3.0781162"
"7208","4708","Brigade de proximité de Narbonne","200 Route Départementale 6009 11100 NARBONNE","cob.vinassan@gendarmerie.interieur.gouv.fr","04 68 41 42 88","11","1","aucun","corg.ggd11@gendarmerie.interieur.gouv.fr","1010815","$Lundi : 8h00-12h00 14h00-18h00$Mardi : 8h00-12h00 14h00-18h00$Mercredi : 8h00-12h00 14h00-18h00$Jeudi : 8h00-12h00 14h00-18h00$Vendredi : 8h00-12h00 14h00-18h00","43.149506","2.9777513"
"4189","4588","Brigade territoriale autonome de Cadenet","329 Route de Lourmarin 84160 CADENET","bta.cadenet@gendarmerie.interieur.gouv.fr","04 90 68 00 17","84","1","aucun","corg.ggd84@gendarmerie.interieur.gouv.fr","1010422","$Lundi : 8h00-12h00 14h00-18h00$Mardi : 8h00-12h00 14h00-18h00$Mercredi : 8h00-12h00 14h00-18h00$Jeudi : 8h00-12h00 14h00-18h00$Vendredi : 8h00-12h00 14h00-18h00$Samedi : 8h00-12h00 14h00-18h00$Dimanche : 9h00-12h00 15h00-18h00$Jours Fériés : 9h00-12h00 15h00-18h00","43.73862","5.36469"
"4188","4609","Brigade territoriale autonome de Valréas","60 Rue Marie Vierge 84600 VALREAS","bta.valreas@gendarmerie.interieur.gouv.fr","04 90 35 00 52","84","1","aucun","corg.ggd84@gendarmerie.interieur.gouv.fr","1010413","$Lundi : 8h00-12h00 14h00-18h00$Mardi : 8h00-12h00 14h00-18h00$Mercredi : 8h00-12h00 14h00-18h00$Jeudi : 8h00-12h00 14h00-18h00$Vendredi : 8h00-12h00 14h00-18h00$Samedi : 8h00-12h00 14h00-18h00$Dimanche : 9h00-12h00 15h00-18h00$Jours Fériés : 9h00-12h00 15h00-18h00","44.38662","4.99958"
"4187","4606","Brigade territoriale autonome de Bollène","1280 Avenue Théodore Aubanel 84500 BOLLENE","bta.bollene@gendarmerie.interieur.gouv.fr","04 90 30 10 28","84","1","aucun","corg.ggd84@gendarmerie.interieur.gouv.fr","1010411","$Lundi : 8h00-12h00 14h00-18h00$Mardi : 8h00-12h00 14h00-18h00$Mercredi : 8h00-12h00 14h00-18h00$Jeudi : 8h00-12h00 14h00-18h00$Vendredi : 8h00-12h00 14h00-18h00$Samedi : 8h00-12h00 14h00-18h00$Dimanche : 9h00-12h00 15h00-18h00$Jours Fériés : 9h00-12h00 15h00-18h00","44.29359","4.75405"
"5266","4794","Brigade territoriale autonome de Villefort","Lieu-dit Les Sédariès 48800 VILLEFORT","bta.villefort@gendarmerie.interieur.gouv.fr","04 66 46 80 05","48","1","aucun","corg.ggd48@gendarmerie.interieur.gouv.fr","1010969","$Lundi : 8h00-12h00 14h00-18h00$Mardi : 8h00-12h00 14h00-18h00$Mercredi : 8h00-12h00 14h00-18h00$Jeudi : 8h00-12h00 14h00-18h00$Vendredi : 8h00-12h00 14h00-18h00$Samedi : 8h00-12h00 14h00-18h00$Dimanche : 9h00-12h00 15h00-18h00$Jours Fériés : 9h00-12h00 15h00-18h00","44.43315","3.93167"
"5264","977","Brigade de proximité de Valdallière","13 Avenue Charles de Gaulle VASSY 14410 VALDALLIERE","cob.conde-en-normandie@gendarmerie.interieur.gouv.fr","02 31 66 36 20","14","1","aucun","corg.ggd14@gendarmerie.interieur.gouv.fr","1007062","$Mardi : 8h00-12h00$Mercredi : 14h00-18h00$Samedi : 14h00-18h00","48.85198","-0.68373"
"5265","4556","Brigade de proximité de Collobrières","Résidence Les Restanques 4 Rue Sieyès 83610 COLLOBRIERES","cob.pierrefeu-du-var@gendarmerie.interieur.gouv.fr","04 94 48 07 06","83","1","aucun","corg.ggd83@gendarmerie.interieur.gouv.fr","1010351","$Lundi : 8h00-12h00 14h00-18h00$Mardi : 8h00-12h00 14h00-18h00$Mercredi : 8h00-12h00 14h00-18h00$Jeudi : 8h00-12h00 14h00-18h00$Vendredi : 8h00-12h00 14h00-18h00$Samedi : 8h00-12h00 14h00-18h00","43.23532","6.30839"
"7206","4700","Brigade de proximité de Saint-Hilaire","27 Route de Ladern 11250 ST HILAIRE","cob.limoux@gendarmerie.interieur.gouv.fr","04 68 69 40 17","11","1","aucun","corg.ggd11@gendarmerie.interieur.gouv.fr","1010799","Non renseigné dans Pulsar","43.09313","2.31336"
"7205","4692","Brigade de proximité de Belpech","4 Rue du Mont-Vallier 11420 BELPECH","cob.salles-sur-l-hers@gendarmerie.interieur.gouv.fr","04 68 60 60 17","11","1","aucun","corg.ggd11@gendarmerie.interieur.gouv.fr","1010788","$Lundi : 14h00-18h00$Mercredi : 14h00-18h00$Vendredi : 8h00-12h00","43.19822","1.74736"
"7204","17444","Brigade territoriale autonome de Saint-Jean-de-Védas","330 Avenue de Librilla 34430 ST JEAN DE VEDAS","bta.st-jean-de-vedas@gendarmerie.interieur.gouv.fr","04 67 99 45 70","34","1","aucun","corg.ggd34@gendarmerie.interieur.gouv.fr","1010669","$Lundi : 8h00-12h00 14h00-18h00$Mardi : 8h00-12h00 14h00-18h00$Mercredi : 8h00-12h00 14h00-18h00$Jeudi : 8h00-12h00 14h00-18h00$Vendredi : 8h00-12h00 14h00-18h00$Samedi : 8h00-12h00 14h00-18h00$Dimanche : 9h00-12h00 15h00-18h00$Jours Fériés : 9h00-12h00 15h00-18h00","43.57344","3.83247"
"4641","1134","Brigade de proximité d'Oudon","399 Rue d'Anjou 44521 OUDON","cob.ancenis-st-gereon@gendarmerie.interieur.gouv.fr","02 40 83 60 01","44","1","aucun","cog.ggd44@gendarmerie.interieur.gouv.fr","1007349","$Lundi : 14h00-18h00$Mercredi : 14h00-18h00$Samedi : 14h00-18h00","47.34882","-1.28187"
"7201","4624","Brigade territoriale autonome de Castries","18 Avenue du Moulin-à-Vent 34160 CASTRIES","bta.castries@gendarmerie.interieur.gouv.fr","04 67 70 03 31","34","1","aucun","corg.ggd34@gendarmerie.interieur.gouv.fr","1010716","$Lundi : 8h00-12h00 14h00-18h00$Mardi : 8h00-12h00 14h00-18h00$Mercredi : 8h00-12h00 14h00-18h00$Jeudi : 8h00-12h00 14h00-18h00$Vendredi : 8h00-12h00 14h00-18h00$Samedi : 8h00-12h00 14h00-18h00$Dimanche : 9h00-12h00 15h00-18h00$Jours Fériés : 9h00-12h00 15h00-18h00","43.67884","3.97972"
"7202","4627","Brigade territoriale autonome de La-Grande-Motte","38 Avenue Melgueil 34280 LA GRANDE MOTTE","bta.la-grande-motte@gendarmerie.interieur.gouv.fr","04 67 56 50 29","34","1","aucun","corg.ggd34@gendarmerie.interieur.gouv.fr","1010717","$Lundi : 8h00-12h00 14h00-18h00$Mardi : 8h00-12h00 14h00-18h00$Mercredi : 8h00-12h00 14h00-18h00$Jeudi : 8h00-12h00 14h00-18h00$Vendredi : 8h00-12h00 14h00-18h00$Samedi : 8h00-12h00 14h00-18h00$Dimanche : 9h00-12h00 15h00-18h00$Jours Fériés : 9h00-12h00 15h00-18h00","43.56295","4.08575"
"4180","4524","Brigade territoriale autonome de Fayence","2971 Route de Fréjus 83440 FAYENCE","bta.fayence@gendarmerie.interieur.gouv.fr","04 94 39 16 40","83","1","aucun","corg.ggd83@gendarmerie.interieur.gouv.fr","1010328","$Lundi : 8h00-12h00 14h00-18h00$Mardi : 8h00-12h00 14h00-18h00$Mercredi : 8h00-12h00 14h00-18h00$Jeudi : 8h00-12h00 14h00-18h00$Vendredi : 8h00-12h00 14h00-18h00$Samedi : 8h00-12h00 14h00-18h00$Dimanche : 9h00-12h00 15h00-18h00$Jours Fériés : 9h00-12h00 15h00-18h00","43.59677","6.69118"
"4179","4527","Brigade de proximité de Salernes","Quartier La Manserve Route Nationale 560 83690 SALERNES","cob.salernes@gendarmerie.interieur.gouv.fr","04 94 70 60 17","83","1","aucun","corg.ggd83@gendarmerie.interieur.gouv.fr","1010326","$Mercredi : 8h00-12h00 14h00-18h00$Vendredi : 8h00-12h00 14h00-18h00$Dimanche : 9h00-12h00 15h00-18h00$Jours Fériés : 9h00-12h00 15h00-18h00","43.56141","6.23876"
"5007","1136","Brigade de proximité de Vallons-de-l'Erdre","16 Boulevard Jules Ferry ST MARS LA JAILLE 44540 VALLONS DE L ERDRE","cob.riaille@gendarmerie.interieur.gouv.fr","02 40 97 01 17","44","1","aucun","cog.ggd44@gendarmerie.interieur.gouv.fr","1007346","$Mardi : 8h00-12h00 14h00-18h00$Jeudi : 14h00-18h00$Dimanche : 15h00-18h00","47.52743","-1.18398"
"4176","4535","Brigade territoriale autonome de Rians","Quartier Les Gypières 10 Chemin Saint-Marc 83560 RIANS","bta.rians@gendarmerie.interieur.gouv.fr","04 94 80 30 34","83","1","aucun","corg.ggd83@gendarmerie.interieur.gouv.fr","1010302","$Lundi : 8h00-12h00 14h00-18h00$Mardi : 8h00-12h00 14h00-18h00$Mercredi : 8h00-12h00 14h00-18h00$Jeudi : 8h00-12h00 14h00-18h00$Vendredi : 8h00-12h00 14h00-18h00$Samedi : 8h00-12h00 14h00-18h00$Dimanche : 9h00-12h00 15h00-18h00$Jours Fériés : 9h00-12h00 15h00-18h00","43.61104","5.75851"
"7198","4531","Brigade de proximité de Barjols","4 Place Louis Durand 83670 BARJOLS","cob.carces@gendarmerie.interieur.gouv.fr","04 94 77 01 18","83","1","aucun","corg.ggd83@gendarmerie.interieur.gouv.fr","1010305","$Mardi : 8h00-12h00 14h00-18h00$Vendredi : 8h00-12h00 14h00-18h00","43.557","6.00461"
"7199","4532","Brigade de proximité de Carcès","Route de Cotignac 83570 CARCES","cob.carces@gendarmerie.interieur.gouv.fr","04 94 04 50 07","83","1","aucun","corg.ggd83@gendarmerie.interieur.gouv.fr","1010304","$Lundi : 8h00-12h00 14h00-18h00$Mercredi : 8h00-12h00 14h00-18h00$Jeudi : 8h00-12h00 14h00-18h00$Samedi : 8h00-12h00 14h00-18h00$Dimanche : 9h00-12h00 15h00-18h00$Jours Fériés : 9h00-12h00 15h00-18h00","43.47964","6.18349"
"7200","4646","Brigade de proximité de Saint-Pons-de-Thomières","18 Avenue de la Gare 34220 ST PONS DE THOMIERES","cob.st-pons-de-thomieres@gendarmerie.interieur.gouv.fr","04 67 97 01 12","34","1","aucun","corg.ggd34@gendarmerie.interieur.gouv.fr","1010690","$Lundi : 8h00-12h00 14h00-18h00$Mardi : 8h00-12h00 14h00-18h00$Mercredi : 8h00-12h00 14h00-18h00$Jeudi : 8h00-12h00 14h00-18h00$Vendredi : 8h00-12h00 14h00-18h00$Samedi : 8h00-12h00 14h00-18h00$Dimanche : 9h00-12h00 15h00-18h00$Jours Fériés : 9h00-12h00 15h00-18h00","43.48761","2.76522"
"7197","4519","Brigade de proximité des Arcs","Quartier Bourgogne Route Nationale 555 83460 LES ARCS","cob.les-arcs@gendarmerie.interieur.gouv.fr","04 94 47 58 01","83","1","aucun","corg.ggd83@gendarmerie.interieur.gouv.fr","1010318","$Lundi : 8h00-12h00 14h00-18h00$Mardi : 8h00-12h00 14h00-18h00$Mercredi : 8h00-12h00 14h00-18h00$Jeudi : 8h00-12h00 14h00-18h00$Vendredi : 8h00-12h00 14h00-18h00$Samedi : 8h00-12h00 14h00-18h00$Dimanche : 9h00-12h00 15h00-18h00$Jours Fériés : 9h00-12h00 15h00-18h00","43.44867","6.47432"
"4172","4562","Brigade territoriale autonome de Saint-Cyr-sur-Mer","41 Chemin des Pradeaux 83270 ST CYR SUR MER","bta.st-cyr-sur-mer@gendarmerie.interieur.gouv.fr","04 94 26 26 52","83","1","aucun","corg.ggd83@gendarmerie.interieur.gouv.fr","1010294","$Lundi : 8h00-12h00 15h00-19h00$Mardi : 8h00-12h00 15h00-19h00$Mercredi : 8h00-12h00 15h00-19h00$Jeudi : 8h00-12h00 15h00-19h00$Vendredi : 8h00-12h00 15h00-19h00$Samedi : 8h00-12h00 15h00-19h00$Dimanche : 9h00-12h00 15h00-19h00$Jours Fériés : 9h00-12h00 15h00-19h00","43.18189","5.69758"
"7196","4534","Brigade de proximité de Gonfaron","Route de Repenti 83590 GONFARON","cob.le-luc@gendarmerie.interieur.gouv.fr","04 98 05 24 15","83","1","aucun","corg.ggd83@gendarmerie.interieur.gouv.fr","1010324","Pas d'accueil du public","43.33252","6.31016"
"7195","4545","Brigade de proximité du Muy","46 Ancienne route de Sainte-maxime 83490 LE MUY","cob.les-arcs@gendarmerie.interieur.gouv.fr","04 98 11 83 60","83","1","aucun","corg.ggd83@gendarmerie.interieur.gouv.fr","1010317","$Lundi : 8h00-12h00 14h00-18h00$Mardi : 8h00-12h00 14h00-18h00$Mercredi : 8h00-12h00 14h00-18h00$Jeudi : 8h00-12h00 14h00-18h00$Vendredi : 8h00-12h00 14h00-18h00$Samedi : 8h00-12h00 14h00-18h00$Dimanche : 9h00-12h00 15h00-18h00$Jours Fériés : 9h00-12h00 15h00-18h00","43.46985","6.5618"
"7193","4490","Brigade de proximité de Breil-sur-Roya","53 Rue du Commandant Hardy 06540 BREIL SUR ROYA","cob.breil-sur-roya@gendarmerie.interieur.gouv.fr","04 93 04 40 24","06","1","aucun","corg.ggd06@gendarmerie.interieur.gouv.fr","1010227","$Lundi : 8h00-12h00 14h00-19h00$Mardi : 8h00-12h00 14h00-19h00$Mercredi : 8h00-12h00 14h00-19h00$Jeudi : 8h00-12h00 14h00-19h00$Vendredi : 8h00-12h00 14h00-19h00$Samedi : 8h00-12h00 14h00-19h00$Dimanche : 9h00-12h00 15h00-19h00$Jours Fériés : 9h00-12h00 15h00-19h00","43.94651","7.51486"
"7192","10436","Brigade de proximité de Roquefort-les-Pins","Route Départementale 2085 06330 ROQUEFORT LES PINS","cob.roquefort-les-pins@gendarmerie.interieur.gouv.fr","04 93 77 54 55","06","1","aucun","corg.ggd06@gendarmerie.interieur.gouv.fr","1010213","$Lundi : 8h00-12h00 14h00-18h00$Mardi : 8h00-12h00 14h00-18h00$Mercredi : 8h00-12h00 14h00-18h00$Jeudi : 8h00-12h00 14h00-18h00$Vendredi : 8h00-12h00 14h00-18h00$Samedi : 8h00-12h00 14h00-18h00$Dimanche : 9h00-12h00 15h00-18h00$Jours Fériés : 9h00-12h00 15h00-18h00","43.67198","7.03202"
"7191","4388","Brigade de proximité de Saint-André-les-Alpes","Quartier Les Cougnas Route de Nice 04170 ST ANDRE LES ALPES","cob.colmars@gendarmerie.interieur.gouv.fr","04 92 89 00 06","04","1","aucun","corg.ggd04@gendarmerie.interieur.gouv.fr","1010054","$Lundi : 8h00-12h00 14h00-18h00$Mardi : 8h00-12h00 14h00-18h00$Mercredi : 8h00-12h00 14h00-18h00$Jeudi : 8h00-12h00 14h00-18h00$Vendredi : 8h00-12h00 14h00-18h00$Samedi : 8h00-12h00 14h00-18h00$Dimanche : 9h00-12h00 15h00-18h00$Jours Fériés : 9h00-12h00 15h00-18h00","43.96181","6.5061"
"7190","7990","Brigade territoriale autonome d'Éguilles","15 Boulevard Léonce Artaud 13510 EGUILLES","bta.eguilles@gendarmerie.interieur.gouv.fr","04 42 92 53 55","13","1","aucun","corg.ggd13@gendarmerie.interieur.gouv.fr","1009982","$Lundi : 8h00-12h00 14h00-18h00$Mardi : 8h00-12h00 14h00-18h00$Mercredi : 8h00-12h00 14h00-18h00$Jeudi : 8h00-12h00 14h00-18h00$Vendredi : 8h00-12h00 14h00-18h00$Samedi : 8h00-12h00 14h00-18h00$Dimanche : 9h00-12h00 15h00-18h00$Jours Fériés : 9h00-12h00 15h00-18h00","43.56837","5.355856"
"7189","4340","Brigade territoriale autonome de Roquevaire","64 Avenue Elsa Triolet 13360 ROQUEVAIRE","bta.roquevaire@gendarmerie.interieur.gouv.fr","04 42 04 20 20","13","1","aucun","corg.ggd13@gendarmerie.interieur.gouv.fr","1009969","$Lundi : 8h00-12h00 14h00-18h00$Mardi : 8h00-12h00 14h00-18h00$Mercredi : 8h00-12h00 14h00-18h00$Jeudi : 8h00-12h00 14h00-18h00$Vendredi : 8h00-12h00 14h00-18h00$Samedi : 8h00-12h00 14h00-18h00$Dimanche : 9h00-12h00 15h00-18h00$Jours Fériés : 9h00-12h00 15h00-18h00","43.34512","5.602915"
"4640","146","Brigade territoriale autonome d'Estaires","2 Rue des Ormeaux 59940 ESTAIRES","bta.estaires@gendarmerie.interieur.gouv.fr","03 28 48 84 05","59","1","aucun","corg.ggd59@gendarmerie.interieur.gouv.fr","1013533","$Lundi : 8h00-12h00 14h00-18h00$Mardi : 8h00-12h00 14h00-18h00$Mercredi : 8h00-12h00 14h00-18h00$Jeudi : 8h00-12h00 14h00-18h00$Vendredi : 8h00-12h00 14h00-18h00$Samedi : 8h00-12h00 14h00-18h00$Dimanche : 9h00-12h00 15h00-18h00$Jours Fériés : 9h00-12h00 15h00-18h00","50.64451","2.71299"
"7188","4339","Brigade territoriale autonome de Gréasque","2 Montée des Brigoulets 13850 GREASQUE","bta.greasque@gendarmerie.interieur.gouv.fr","04 42 58 80 02","13","1","aucun","corg.ggd13@gendarmerie.interieur.gouv.fr","1009967","$Lundi : 8h00-12h00 14h00-18h00$Mardi : 8h00-12h00 14h00-18h00$Mercredi : 8h00-12h00 14h00-18h00$Jeudi : 8h00-12h00 14h00-18h00$Vendredi : 8h00-12h00 14h00-18h00$Samedi : 8h00-12h00 14h00-18h00$Dimanche : 9h00-12h00 15h00-18h00$Jours Fériés : 9h00-12h00 15h00-18h00","43.43038","5.54207"
"5905","1476","Brigade territoriale autonome de Villegouge","5 Route des Acacias 33141 VILLEGOUGE","bta.villegouge@gendarmerie.interieur.gouv.fr","05 57 84 86 50","33","1","aucun","corg.ggd33@gendarmerie.interieur.gouv.fr","1004099","$Lundi : 14h00-17h00$Mardi : 14h00-17h00$Mercredi : 14h00-17h00$Jeudi : 14h00-17h00$Vendredi : 14h00-17h00$Samedi : 14h00-17h00","44.96757","-0.30876"
"5906","1560","Brigade de proximité de Roquefort","49 Place Georges Lapios 40120 ROQUEFORT","cob.roquefort@gendarmerie.interieur.gouv.fr","05 58 45 76 39","40","1","aucun","corg.ggd40@gendarmerie.interieur.gouv.fr","1004252","$Lundi : 8h00-12h00 14h00-18h00$Mardi : 8h00-12h00 14h00-18h00$Mercredi : 8h00-12h00 14h00-18h00$Jeudi : 8h00-12h00 14h00-18h00$Vendredi : 8h00-12h00 14h00-18h00$Samedi : 8h00-12h00 14h00-18h00$Dimanche : 9h00-12h00 14h00-18h00$Jours Fériés : 9h00-12h00 15h00-18h00","44.03577","-0.32103"
"6753","4505","Brigade de proximité de Saint-Sauveur-sur-Tinée","10 Boulevard Saint-Blaise 06420 ST SAUVEUR SUR TINEE","cob.st-etienne-de-tinee@gendarmerie.interieur.gouv.fr","04 93 02 00 07","06","1","aucun","corg.ggd06@gendarmerie.interieur.gouv.fr","1010250","$Lundi : 8h00-12h00$Mardi : 8h00-12h00$Mercredi : 8h00-12h00$Jeudi : 8h00-12h00$Vendredi : 8h00-12h00$Samedi : 8h00-12h00$Jours Fériés : 9h00-12h00","44.08484","7.10393"
"5163","514","Brigade de proximité de Crépy-en-Valois","9 Rue des Érables 60800 CREPY EN VALOIS","cob.crepy-en-valois@gendarmerie.interieur.gouv.fr","03 44 94 50 17","60","1","aucun","corg.ggd60@gendarmerie.interieur.gouv.fr","1014021","$Lundi : 9h00-12h00 14h00-18h00$Mardi : 9h00-12h00 14h00-18h00$Mercredi : 9h00-12h00 14h00-18h00$Jeudi : 9h00-12h00 16h00-18h00$Vendredi : 9h00-12h00 15h00-19h00$Samedi : 8h00-12h00 14h00-19h00$Dimanche : 15h00-18h00$Jours Fériés : 15h00-18h00","49.22474","2.90223"
"5440","3643","Brigade de proximité de Rumigny","19 Rue de Mon Plaisir 08290 RUMIGNY","cob.rocroi@gendarmerie.interieur.gouv.fr","03 24 35 51 03","08","1","aucun","corg.ggd08@gendarmerie.interieur.gouv.fr","1012402","$Mardi : 14h00-18h00$Jeudi : 14h00-18h00","49.809","4.25849"
"216","571","Brigade de proximité de Goderville","Rue Guy de Maupassant 76110 GODERVILLE","cob.criquetot-l-esneval@gendarmerie.interieur.gouv.fr","02 35 27 70 17","76","1","aucun","cog.ggd76@gendarmerie.interieur.gouv.fr","1006762","$Lundi : 14h00-18h00$Mardi : 14h00-18h00$Mercredi : 14h00-18h00$Jeudi : 14h00-18h00$Vendredi : 14h00-18h00$Samedi : 14h00-18h00","49.64172","0.35544"
"7186","4325","Brigade territoriale autonome d'Arles","1 Boulevard des Lices 13200 ARLES","bta.arles@gendarmerie.interieur.gouv.fr","04 90 52 50 60","13","3","aucun","corg.ggd13@gendarmerie.interieur.gouv.fr","1009950","$Lundi : 8h00-12h00 14h00-18h00$Mardi : 8h00-12h00 14h00-18h00$Mercredi : 8h00-12h00 14h00-18h00$Jeudi : 8h00-12h00 14h00-18h00$Vendredi : 8h00-12h00 14h00-18h00$Samedi : 8h00-12h00 14h00-18h00$Dimanche : 9h00-12h00 15h00-18h00$Jours Fériés : 9h00-12h00 15h00-18h00","43.67473","4.63134"
"7183","4076","Brigade de proximité d'Orgelet","11 Rue de la Confise 39270 ORGELET","cob.arinthod@gendarmerie.interieur.gouv.fr","03 84 25 41 57","39","1","aucun","corg.ggd39@gendarmerie.interieur.gouv.fr","1013176","$Lundi : 14h00-18h00$Mercredi : 14h00-18h00$Vendredi : 8h00-12h00$Samedi : 14h00-18h00","46.51701","5.60728"
"7182","4071","Brigade de proximité d'Arinthod","1 Rue Jean Breuil 39240 ARINTHOD","cob.arinthod@gendarmerie.interieur.gouv.fr","03 84 44 93 24","39","1","aucun","corg.ggd39@gendarmerie.interieur.gouv.fr","1013175","$Lundi : 8h00-12h00 14h00-19h00$Mardi : 8h00-12h00 14h00-19h00$Mercredi : 8h00-12h00 14h00-19h00$Jeudi : 8h00-12h00 14h00-19h00$Vendredi : 8h00-12h00 14h00-19h00$Samedi : 8h00-12h00 14h00-19h00$Dimanche : 9h00-12h00 15h00-18h00$Jours Fériés : 9h00-12h00 15h00-18h00","46.39641","5.57095"
"7181","4062","Brigade de proximité de Mouthe","22 bis Rue Cart-Broumet 25240 MOUTHE","cob.les-hopitaux-neufs@gendarmerie.interieur.gouv.fr","03 81 69 21 52","25","1","aucun","corg.ggd25@gendarmerie.interieur.gouv.fr","1013132","$Mardi : 14h00-18h00$Vendredi : 8h00-12h00","46.70862","6.18808"
"7177","3885","Brigade de proximité de Dompierre-les-Ormes","57 Rue de la Gendarmerie 71520 DOMPIERRE LES ORMES","cob.cluny@gendarmerie.interieur.gouv.fr","03 85 50 21 25","71","1","aucun","corg.ggd71@gendarmerie.interieur.gouv.fr","1012847","$Mardi : 8h00-12h00 14h00-18h00","46.36201","4.4822"
"7178","4131","Brigade territoriale autonome de Lure","12 Rue Pasteur 70200 LURE","bta.lure@gendarmerie.interieur.gouv.fr","03 84 30 48 00","70","1","aucun","corg.ggd70@gendarmerie.interieur.gouv.fr","1013277","$Lundi : 8h00-12h00 14h00-18h00$Mardi : 8h00-12h00 14h00-18h00$Mercredi : 8h00-12h00 14h00-18h00$Jeudi : 8h00-12h00 14h00-18h00$Vendredi : 8h00-12h00 14h00-18h00$Samedi : 8h00-12h00 14h00-18h00$Dimanche : 9h00-12h00 15h00-18h00$Jours Fériés : 9h00-12h00 15h00-18h00","47.68461","6.49703"
"7180","4031","Brigade territoriale autonome de Bavans","1 Route de Présentevillers 25550 BAVANS","bta.bavans@gendarmerie.interieur.gouv.fr","03 81 92 69 20","25","1","aucun","corg.ggd25@gendarmerie.interieur.gouv.fr","1013107","$Lundi : 8h00-12h00 14h00-18h00$Mardi : 8h00-12h00 14h00-18h00$Mercredi : 8h00-12h00 14h00-18h00$Jeudi : 8h00-12h00 14h00-18h00$Vendredi : 8h00-12h00 14h00-18h00$Samedi : 8h00-12h00 14h00-18h00$Dimanche : 9h00-12h00 15h00-18h00$Jours Fériés : 9h00-12h00 15h00-18h00","47.48592","6.72994"
"5926","3371","Brigade territoriale autonome de Montmédy","11 bis Rue Chevée 55600 MONTMEDY","bta.montmedy@gendarmerie.interieur.gouv.fr","03 29 80 10 27","55","1","aucun","corg.ggd55@gendarmerie.interieur.gouv.fr","1011668","$Lundi : 8h00-12h00 14h00-18h00$Mardi : 8h00-12h00 14h00-18h00$Mercredi : 8h00-12h00 14h00-18h00$Jeudi : 8h00-12h00 14h00-18h00$Vendredi : 8h00-12h00 14h00-18h00$Samedi : 8h00-12h00 14h00-18h00$Dimanche : 9h00-12h00 15h00-18h00$Jours Fériés : 9h00-12h00 15h00-18h00","49.5226","5.36387"
"4637","3610","Brigade de proximité de Thiéblemont-Farémont","102 Grande Rue 51300 THIEBLEMONT FAREMONT","cob.sermaize-les-bains@gendarmerie.interieur.gouv.fr","03 26 73 81 28","51","1","aucun","corg.ggd51@gendarmerie.interieur.gouv.fr","1012345","$Mardi : 8h00-12h00$Jeudi : 15h00-19h00","48.69016","4.72134"
"230","595","Brigade de proximité de Doudeville","1 Rue des Prés 76560 DOUDEVILLE","cob.yerville@gendarmerie.interieur.gouv.fr","02 35 96 54 67","76","1","aucun","cog.ggd76@gendarmerie.interieur.gouv.fr","1006809","$Lundi : 8h00-12h00$Jeudi : 14h00-18h00$Samedi : 8h00-12h00","49.71787","0.78352"
"7176","3690","Brigade de proximité de Piney","27 Rue de la Chapelle 10220 PINEY","cob.lusigny-sur-barse@gendarmerie.interieur.gouv.fr","03 25 46 30 05","10","1","aucun","corg.ggd10@gendarmerie.interieur.gouv.fr","1012481","$Samedi : 8h00-12h00","48.36322","4.32779"
"5156","4598","Brigade de proximité de Malaucène","Route de Vaison-la-Romaine 84340 MALAUCENE","cob.vaison-la-romaine@gendarmerie.interieur.gouv.fr","04 90 65 20 09","84","1","aucun","corg.ggd84@gendarmerie.interieur.gouv.fr","1010402","$Mercredi : 8h00-12h00 14h00-18h00","44.17777","5.12896"
"5157","773","Brigade de proximité de Belle-Isle-en-Terre","2 Rue de Tournebride 22810 BELLE ISLE EN TERRE","cob.callac@gendarmerie.interieur.gouv.fr","02 96 43 30 17","22","1","aucun","corg.ggd22@gendarmerie.interieur.gouv.fr","1006221","$Mardi : 14h00-18h00$Vendredi : 8h00-12h00","48.54166","-3.39549"
"4635","1081","Brigade de proximité de Domfront-en-Poiraie","2 Rue Georges Clemenceau DOMFRONT 61700 DOMFRONT EN POIRAIE","cob.domfront-en-poiraie@gendarmerie.interieur.gouv.fr","02 33 14 03 48","61","1","aucun","corg.ggd61@gendarmerie.interieur.gouv.fr","1007215","$Lundi : 8h00-12h00 14h00-18h00$Mardi : 8h00-12h00 14h00-18h00$Mercredi : 8h00-12h00 14h00-18h00$Jeudi : 8h00-12h00 14h00-18h00$Vendredi : 8h00-12h00 14h00-18h00$Samedi : 8h00-12h00 14h00-18h00$Dimanche : 9h00-12h00 15h00-18h00$Jours Fériés : 9h00-12h00 15h00-18h00","48.59164","-0.64903"
"7174","3599","Brigade de proximité de Loivre","1 Rue de Courcy 51220 LOIVRE","cob.gueux@gendarmerie.interieur.gouv.fr","03 26 61 00 59","51","1","aucun","corg.ggd51@gendarmerie.interieur.gouv.fr","1012325","$Lundi : 8h00-12h00$Mercredi : 14h00-18h00$Samedi : 14h00-18h00","49.34196","3.98531"
"7172","4261","Brigade de proximité de Jebsheim","95 Grand' Rue 68320 JEBSHEIM","cob.colmar@gendarmerie.interieur.gouv.fr","03 89 71 61 01","68","1","aucun","corg.ggd68@gendarmerie.interieur.gouv.fr","1012124","$Lundi : 8h00-12h00 14h00-18h00$Mardi : 8h00-12h00 14h00-18h00$Mercredi : 8h00-12h00 14h00-18h00$Jeudi : 8h00-12h00 14h00-18h00$Vendredi : 8h00-12h00 14h00-18h00$Samedi : 8h00-12h00 14h00-18h00$Dimanche : 9h00-12h00 15h00-18h00$Jours Fériés : 9h00-12h00 15h00-18h00","48.1293","7.48029"
"5092","4727","Brigade de proximité du Grau-du-Roi","Quai Colbert 5 Route d'Aigues Mortes 30240 LE GRAU DU ROI","cob.le-grau-du-roi@gendarmerie.interieur.gouv.fr","04 66 53 48 00","30","1","aucun","corg.ggd30@gendarmerie.interieur.gouv.fr","1010938","$Lundi : 8h00-12h00 14h00-18h00$Mardi : 8h00-12h00 14h00-18h00$Mercredi : 8h00-12h00 14h00-18h00$Jeudi : 8h00-12h00 14h00-18h00$Vendredi : 8h00-12h00 14h00-18h00$Samedi : 8h00-12h00 14h00-18h00$Dimanche : 9h00-12h00 15h00-18h00$Jours Fériés : 9h00-12h00 15h00-18h00","43.53938","4.14266"
"246","622","Brigade de proximité de Rugles","36 Rue Pierre Marquis 27250 RUGLES","cob.verneuil-d-avre-et-d-iton@gendarmerie.interieur.gouv.fr","02 32 24 60 17","27","1","aucun","corg.ggd27@gendarmerie.interieur.gouv.fr","1006856","$Lundi : 8h00-12h00 14h00-18h00$Samedi : 8h00-12h00","48.81494","0.7032"
"4634","4108","Brigade de proximité de Saint-Laurent-en-Grandvaux","21 Rue du Coin-d'Amont 39150 ST LAURENT EN GRANDVAUX","cob.saint-laurent-en-grandvaux@gendarmerie.interieur.gouv.fr","03 84 60 14 30","39","1","aucun","corg.ggd39@gendarmerie.interieur.gouv.fr","1013219","$Lundi : 8h00-12h00 14h00-18h00$Mardi : 8h00-12h00 14h00-18h00$Mercredi : 8h00-12h00 14h00-18h00$Jeudi : 8h00-12h00$Vendredi : 14h00-18h00$Samedi : 8h00-12h00 14h00-18h00$Dimanche : 9h00-12h00$Jours Fériés : 9h00-12h00","46.57781","5.95556"
"7166","3223","Brigade de proximité d'Albestroff","5 Rue du Stade 57670 ALBESTROFF","cob.dieuze@gendarmerie.interieur.gouv.fr","03 87 01 60 61","57","1","aucun","corg.ggd57@gendarmerie.interieur.gouv.fr","1011482",,"48.93404","6.85286"
"250","629","Brigade territoriale autonome de Vexin-sur-Epte","2 Rue de la Côte Blanche ECOS 27630 VEXIN SUR EPTE","bta.vexin-sur-epte@gendarmerie.interieur.gouv.fr","02 32 52 01 17","27","1","aucun","corg.ggd27@gendarmerie.interieur.gouv.fr","1006879","$Lundi : 8h00-12h00 14h00-19h00$Mardi : 8h00-12h00 14h00-19h00$Mercredi : 8h00-12h00 14h00-19h00$Jeudi : 8h00-12h00 14h00-19h00$Vendredi : 8h00-12h00 14h00-19h00$Samedi : 8h00-12h00 14h00-19h00$Dimanche : 9h00-12h00 15h00-19h00$Jours Fériés : 9h00-12h00 15h00-19h00","49.15575","1.60508"
"7171","3524","Brigade territoriale autonome de Neuf-Brisach","9 Rue de Belfort 68600 NEUF BRISACH","bta.neuf-brisach@gendarmerie.interieur.gouv.fr","03 89 72 56 87","68","1","aucun","corg.ggd68@gendarmerie.interieur.gouv.fr","1012135","$Lundi : 8h00-12h00 14h00-18h00$Mardi : 8h00-12h00 14h00-18h00$Mercredi : 8h00-12h00 14h00-18h00$Jeudi : 8h00-12h00 14h00-18h00$Vendredi : 8h00-12h00 14h00-18h00$Samedi : 8h00-12h00 14h00-18h00$Dimanche : 9h00-12h00 15h00-18h00$Jours Fériés : 9h00-12h00 15h00-18h00","48.01674","7.52681"
"7170","3523","Brigade territoriale autonome de Munster","42 Rue de Colmar 68140 MUNSTER","bta.munster@gendarmerie.interieur.gouv.fr","03 89 77 30 51","68","1","aucun","corg.ggd68@gendarmerie.interieur.gouv.fr","1012132","$Lundi : 8h00-12h00 14h00-18h00$Mardi : 8h00-12h00 14h00-18h00$Mercredi : 8h00-12h00 14h00-18h00$Jeudi : 8h00-12h00 14h00-18h00$Vendredi : 8h00-12h00 14h00-18h00$Samedi : 8h00-12h00 14h00-18h00$Dimanche : 9h00-12h00 15h00-18h00$Jours Fériés : 9h00-12h00 15h00-18h00","48.04068","7.15386"
"7169","3489","Brigade de proximité de Truchtersheim","1 Rue de la Gendarmerie 67370 TRUCHTERSHEIM","cob.truchtersheim@gendarmerie.interieur.gouv.fr","03 88 69 60 08","67","1","aucun","corg.ggd67@gendarmerie.interieur.gouv.fr","1012018","$Lundi : 8h00-12h00 14h00-18h00$Mardi : 8h00-12h00 14h00-18h00$Mercredi : 8h00-12h00 14h00-18h00$Jeudi : 8h00-12h00 14h00-18h00$Vendredi : 8h00-12h00 14h00-18h00$Samedi : 8h00-12h00 14h00-18h00$Dimanche : 9h00-12h00 15h00-18h00$Jours Fériés : 9h00-12h00 15h00-18h00","48.65611","7.60839"
"7168","3412","Brigade de proximité de Mirecourt","333 Avenue de Lattre de Tassigny 88500 MIRECOURT","cob.mirecourt@gendarmerie.interieur.gouv.fr","03 29 37 00 17","88","1","aucun","corg.ggd88@gendarmerie.interieur.gouv.fr","1011704","$Lundi : 8h00-12h00 14h00-18h00$Mardi : 8h00-12h00 14h00-18h00$Mercredi : 8h00-12h00 14h00-18h00$Jeudi : 8h00-12h00 14h00-18h00$Vendredi : 8h00-12h00 14h00-18h00$Samedi : 8h00-12h00 14h00-18h00$Dimanche : 9h00-12h00 15h00-18h00$Jours Fériés : 9h00-12h00 15h00-18h00","48.29278","6.13159"
"6041","486","Brigade territoriale autonome de Mouy","1 Rue Fernand Derobert 60250 MOUY","bta.mouy@gendarmerie.interieur.gouv.fr","03 44 26 00 17","60","1","aucun","corg.ggd60@gendarmerie.interieur.gouv.fr","1014012","$Lundi : 8h00-12h00 14h00-18h00$Mardi : 8h00-12h00 14h00-18h00$Mercredi : 8h00-12h00 14h00-18h00$Jeudi : 8h00-12h00 14h00-18h00$Vendredi : 8h00-12h00 14h00-18h00$Samedi : 8h00-12h00 14h00-18h00$Dimanche : 9h00-12h00$Jours Fériés : 9h00-12h00","49.32104","2.31685"
"5168","834","Brigade de proximité de Pleyben","Rue Laënnec 29190 PLEYBEN","cob.chateauneuf-du-faou@gendarmerie.interieur.gouv.fr","02 98 26 60 09","29","1","aucun","corg.ggd29@gendarmerie.interieur.gouv.fr","1006328","$Lundi : 14h00-18h00$Samedi : 8h00-12h00","48.22218","-3.96656"
"5169","5388","Brigade de proximité de Sancoins","83 Rue Maurice Lucas 18600 SANCOINS","cob.sancoins@gendarmerie.interieur.gouv.fr","02 48 77 53 31","18","1","aucun","corg.ggd18@gendarmerie.interieur.gouv.fr","1007983","$Lundi : 8h00-12h00 14h00-19h00$Mardi : 8h00-12h00 14h00-19h00$Mercredi : 8h00-12h00 14h00-19h00$Jeudi : 8h00-12h00 14h00-19h00$Vendredi : 8h00-12h00 14h00-19h00$Samedi : 8h00-12h00 14h00-19h00$Dimanche : 9h00-12h00 15h00-18h00$Jours Fériés : 9h00-12h00 15h00-18h00","46.83279","2.92456"
"7162","3107","Brigade de proximité de Mauriac","7 Avenue du Commandant Gabon 15200 MAURIAC","cob.mauriac@gendarmerie.interieur.gouv.fr","04 71 68 01 50","15","1","aucun","corg.ggd15@gendarmerie.interieur.gouv.fr","1009671","$Lundi : 8h00-12h00 14h00-18h00$Mardi : 8h00-12h00 14h00-18h00$Mercredi : 8h00-12h00 14h00-18h00$Jeudi : 8h00-12h00 14h00-18h00$Vendredi : 8h00-12h00 14h00-18h00$Samedi : 8h00-12h00 14h00-18h00$Dimanche : 9h00-12h00 15h00-18h00$Jours Fériés : 9h00-12h00 15h00-18h00","45.21435","2.33717"
"279","681","Brigade de proximité de Montauban-de-Bretagne","4 Avenue Joseph Faramin 35360 MONTAUBAN DE BRETAGNE","cob.montauban-de-bretagne@gendarmerie.interieur.gouv.fr","02 99 06 40 03","35","1","aucun","corg.ggd35@gendarmerie.interieur.gouv.fr","1006091","$Lundi : 8h00-12h00 14h00-18h00$Mardi : 8h00-12h00 14h00-18h00$Mercredi : 8h00-12h00 14h00-18h00$Jeudi : 8h00-12h00 14h00-18h00$Vendredi : 8h00-12h00 14h00-18h00$Samedi : 8h00-12h00 14h00-18h00$Dimanche : 9h00-12h00 15h00-18h00$Jours Fériés : 9h00-12h00 15h00-18h00","48.20063","-2.05246"
"280","682","Brigade de proximité de Montfort-sur-Meu","22 Rue Chateaubriand 35160 MONTFORT SUR MEU","cob.montfort-sur-meu@gendarmerie.interieur.gouv.fr","02 99 09 00 12","35","1","aucun","corg.ggd35@gendarmerie.interieur.gouv.fr","1006088","$Lundi : 8h00-12h00 14h00-18h00$Mardi : 8h00-12h00 14h00-18h00$Mercredi : 8h00-12h00 14h00-18h00$Jeudi : 8h00-12h00 14h00-18h00$Vendredi : 8h00-12h00 14h00-18h00$Samedi : 8h00-12h00 14h00-18h00$Dimanche : 9h00-12h00 15h00-18h00$Jours Fériés : 9h00-12h00 15h00-18h00","48.13639","-1.94604"
"7161","3583","Brigade de proximité d'Avize","20 Avenue de Sulzfeld 51190 AVIZE","cob.avize@gendarmerie.interieur.gouv.fr","03 26 57 52 17","51","1","aucun","corg.ggd51@gendarmerie.interieur.gouv.fr","1012305","$Lundi : 8h00-12h00 14h00-18h00$Mardi : 8h00-12h00 14h00-18h00$Mercredi : 8h00-12h00 14h00-18h00$Jeudi : 8h00-12h00 14h00-18h00$Vendredi : 8h00-12h00 14h00-18h00$Samedi : 8h00-12h00 14h00-18h00$Dimanche : 9h00-12h00 15h00-18h00$Jours Fériés : 9h00-12h00 15h00-18h00","48.97495","4.02856"
"283","686","Brigade de proximité de Saint-Méen-le-Grand","7 Rue de Gaël 35290 ST MEEN LE GRAND","cob.montauban-de-bretagne@gendarmerie.interieur.gouv.fr","02 99 09 60 07","35","1","aucun","corg.ggd35@gendarmerie.interieur.gouv.fr","1006092","$Lundi : 14h00-18h00$Vendredi : 14h00-18h00","48.18469","-2.19431"
"285","690","Brigade de proximité de Fougères","Caserne Guénaudière 29 Boulevard de Groslay 35300 FOUGERES","cob.fougeres@gendarmerie.interieur.gouv.fr","02 99 94 25 25","35","1","aucun","corg.ggd35@gendarmerie.interieur.gouv.fr","1006136","$Mardi : 8h00-12h00 14h00-18h00$Mercredi : 8h00-12h00 14h00-18h00$Jeudi : 8h00-12h00 14h00-18h00$Vendredi : 8h00-12h00 14h00-18h00$Samedi : 8h00-12h00 14h00-18h00$Dimanche : 9h00-12h00 15h00-18h00$Jours Fériés : 9h00-12h00 15h00-18h00","48.35022","-1.18379"
"7160","3141","Brigade de proximité de Bains","588 Route du gévaudan 43370 BAINS","cob.costaros@gendarmerie.interieur.gouv.fr","04 71 57 50 81","43","1","aucun","corg.ggd43@gendarmerie.interieur.gouv.fr","1009733","$Mardi : 14h00-18h00","45.01041","3.78125"
"289","694","Brigade territoriale autonome de Maen-Roch","Rue de Normandie ST BRICE EN COGLES 35460 MAEN ROCH","bta.maen-roch@gendarmerie.interieur.gouv.fr","02 99 98 61 05","35","1","aucun","corg.ggd35@gendarmerie.interieur.gouv.fr","1006125","$Lundi : 8h00-12h00 14h00-18h00$Mardi : 8h00-12h00 14h00-18h00$Mercredi : 8h00-12h00 14h00-18h00$Jeudi : 8h00-12h00 14h00-18h00$Vendredi : 8h00-12h00 14h00-18h00$Samedi : 8h00-12h00 14h00-18h00$Dimanche : 9h00-12h00 15h00-18h00$Jours Fériés : 9h00-12h00 15h00-18h00","48.41185","-1.36226"
"7157","2925","Brigade de proximité de Rumilly","8 Route de Baufort 74150 RUMILLY","cob.rumilly@gendarmerie.interieur.gouv.fr","04 50 01 00 18","74","1","aucun","corg.ggd74@gendarmerie.interieur.gouv.fr","1009195","$Lundi : 8h00-12h00 14h00-18h00$Mardi : 8h00-12h00 14h00-18h00$Mercredi : 8h00-12h00 14h00-18h00$Jeudi : 8h00-12h00 14h00-18h00$Vendredi : 8h00-12h00 14h00-18h00$Samedi : 9h00-12h00 15h00-18h00$Dimanche : 9h00-12h00 15h00-18h00$Jours Fériés : 9h00-12h00 15h00-18h00","45.86668","5.93943"
"4631","603","Brigade de proximité d'Yerville","483 Avenue Charles de Gaulle 76760 YERVILLE","cob.yerville@gendarmerie.interieur.gouv.fr","02 35 96 84 12","76","1","aucun","cog.ggd76@gendarmerie.interieur.gouv.fr","1006808","$Lundi : 8h00-12h00 14h00-19h00$Mardi : 8h00-12h00 14h00-19h00$Mercredi : 8h00-12h00 14h00-19h00$Jeudi : 8h00-12h00 14h00-19h00$Vendredi : 8h00-12h00 14h00-19h00$Samedi : 8h00-12h00 14h00-19h00$Dimanche : 9h00-12h00 15h00-18h00$Jours Fériés : 9h00-12h00 15h00-18h00","49.66522","0.89003"
"5172","2099","Brigade territoriale autonome de Saint-Lys","31 Avenue des Pyrénées 31470 ST LYS","bta.st-lys@gendarmerie.interieur.gouv.fr","05 34 47 01 80","31","1","aucun","cog.ggd31@gendarmerie.interieur.gouv.fr","1004716","$Lundi : 8h00-12h00 14h00-18h00$Mardi : 8h00-12h00 14h00-18h00$Mercredi : 8h00-12h00 14h00-18h00$Jeudi : 8h00-12h00 14h00-18h00$Vendredi : 8h00-12h00 14h00-18h00$Samedi : 8h00-12h00 14h00-18h00$Dimanche : 9h00-12h00 15h00-18h00$Jours Fériés : 9h00-12h00 15h00-18h00","43.50957","1.17244"
"4630","4037","Brigade de proximité de Pont-de-Roide-Vermondans","28 Rue des Bouleaux 25150 PONT DE ROIDE VERMONDANS","cob.pont-de-roide-vermondans@gendarmerie.interieur.gouv.fr","03 81 92 40 13","25","1","aucun","corg.ggd25@gendarmerie.interieur.gouv.fr","1013119","$Lundi : 8h00-12h00 14h00-18h00$Mardi : 8h00-12h00 14h00-18h00$Mercredi : 8h00-12h00 14h00-18h00$Jeudi : 8h00-12h00 14h00-18h00$Vendredi : 8h00-12h00 14h00-18h00$Samedi : 8h00-12h00 14h00-18h00$Dimanche : 9h00-12h00 15h00-18h00$Jours Fériés : 9h00-12h00 15h00-18h00","47.389927","6.769291"
"299","714","Brigade de proximité de Dol-de-Bretagne","86 bis Rue de Paris 35120 DOL DE BRETAGNE","cob.dol-de-bretagne@gendarmerie.interieur.gouv.fr","02 99 48 02 40","35","1","aucun","corg.ggd35@gendarmerie.interieur.gouv.fr","1006120","$Lundi : 8h00-12h00 14h00-18h00$Mardi : 8h00-12h00 14h00-18h00$Mercredi : 8h00-12h00 14h00-18h00$Jeudi : 8h00-12h00 14h00-18h00$Vendredi : 8h00-12h00 14h00-18h00$Samedi : 8h00-12h00 14h00-18h00$Dimanche : 9h00-12h00 15h00-18h00$Jours Fériés : 9h00-12h00 15h00-18h00","48.55195","-1.74111"
"7154","2836","Brigade de proximité de Saint-Galmier","26 Route de Cuzieu 42330 ST GALMIER","cob.st-galmier@gendarmerie.interieur.gouv.fr","04 77 54 01 21","42","1","aucun","corg.ggd42@gendarmerie.interieur.gouv.fr","1009035","$Lundi : 8h00-12h00 14h00-18h00$Mardi : 8h00-12h00 14h00-18h00$Mercredi : 8h00-12h00 14h00-18h00$Vendredi : 14h00-18h00$Samedi : 8h00-12h00 14h00-18h00$Dimanche : 9h00-12h00 15h00-18h00$Jours Fériés : 9h00-12h00 15h00-18h00","45.59569","4.30886"
"5174","2084","Brigade de proximité de Verfeil","Route de Puylaurens 31590 VERFEIL","cob.balma@gendarmerie.interieur.gouv.fr","05 34 27 31 90","31","1","aucun","cog.ggd31@gendarmerie.interieur.gouv.fr","1004689","$Mardi : 8h00-12h00$Jeudi : 8h00-12h00","43.65353","1.65064"
"302","717","Brigade de proximité de Saint-Domineuc","5 Route Nationale 35190 ST DOMINEUC","cob.combourg@gendarmerie.interieur.gouv.fr","02 99 45 21 03","35","1","aucun","corg.ggd35@gendarmerie.interieur.gouv.fr","1006118","Pas d'accueil du public","48.36998","-1.8748"
"7152","2736","Brigade de proximité de Villard-Bonnot","2 Boulevard Jules Ferry 38190 VILLARD BONNOT","cob.domene@gendarmerie.interieur.gouv.fr","04 76 71 42 18","38","1","aucun","corg.ggd38@gendarmerie.interieur.gouv.fr","1008931","$Mardi : 8h00-12h00 14h00-18h00$Jeudi : 8h00-12h00 14h00-18h00$Dimanche : 9h00-12h00 15h00-18h00$Jours Fériés : 9h00-12h00 15h00-18h00","45.24081","5.89055"
"4629","4044","Brigade territoriale autonome de Baume-les-Dames","1 Promenade du Breuil 25110 BAUME LES DAMES","bta.baume-les-dames@gendarmerie.interieur.gouv.fr","03 81 84 11 17","25","1","aucun","corg.ggd25@gendarmerie.interieur.gouv.fr","1013080","$Lundi : 8h00-12h00 14h00-19h00$Mardi : 8h00-12h00 14h00-19h00$Mercredi : 8h00-12h00 14h00-19h00$Jeudi : 8h00-12h00 14h00-19h00$Vendredi : 8h00-12h00 14h00-19h00$Samedi : 8h00-12h00 14h00-19h00$Dimanche : 9h00-12h00 15h00-18h00$Jours Fériés : 9h00-12h00 15h00-18h00","47.34948","6.36023"
"4627","3932","Brigade de proximité de Beaurepaire-en-Bresse","130 Route de la Bresse 71580 BEAUREPAIRE EN BRESSE","cob.louhans@gendarmerie.interieur.gouv.fr","03 85 60 38 60","71","1","aucun","corg.ggd71@gendarmerie.interieur.gouv.fr","1012907","$Mardi : 8h00-12h00","46.67296","5.39152"
"7151","8514","Brigade territoriale autonome de Seyssinet-Pariset","24 Avenue du Vercors 38170 SEYSSINET PARISET","bta.seyssinet-pariset@gendarmerie.interieur.gouv.fr","04 76 21 55 22","38","1","aucun","corg.ggd38@gendarmerie.interieur.gouv.fr","1008869","$Lundi : 8h00-12h00 14h00-18h00$Mardi : 8h00-12h00 14h00-18h00$Mercredi : 8h00-12h00 14h00-18h00$Jeudi : 8h00-12h00 14h00-18h00$Vendredi : 8h00-12h00 14h00-18h00$Samedi : 8h00-12h00 14h00-18h00$Dimanche : 9h00-12h00 15h00-18h00$Jours Fériés : 9h00-12h00 15h00-18h00","45.18072","5.68718"
"313","740","Brigade de proximité de Binic-Étables-sur-Mer","2 Rue Charles Le Goffic ETABLES SUR MER 22680 BINIC ETABLES SUR MER","cob.binic-etables-sur-mer@gendarmerie.interieur.gouv.fr","02 96 70 61 24","22","1","aucun","corg.ggd22@gendarmerie.interieur.gouv.fr","1006182","$Lundi : 8h00-12h00 14h00-18h00$Mardi : 8h00-12h00 14h00-18h00$Mercredi : 8h00-12h00 14h00-18h00$Jeudi : 8h00-12h00 14h00-18h00$Vendredi : 8h00-12h00 14h00-18h00$Samedi : 8h00-12h00 14h00-18h00$Dimanche : 9h00-12h00 15h00-18h00$Jours Fériés : 9h00-12h00 15h00-18h00","48.62567","-2.83317"
"5946","5416","Brigade de proximité d'Illiers-Combray","1 Rue du Grand-Clos 28120 ILLIERS COMBRAY","cob.illiers-combray@gendarmerie.interieur.gouv.fr","02 37 24 25 70","28","1","aucun","corg.ggd28@gendarmerie.interieur.gouv.fr","1008053","$Lundi : 8h00-12h00 14h00-18h00$Mardi : 8h00-12h00 14h00-18h00$Mercredi : 8h00-12h00 14h00-18h00$Jeudi : 8h00-12h00 14h00-18h00$Vendredi : 8h00-12h00 14h00-18h00$Samedi : 8h00-12h00 14h00-18h00$Dimanche : 9h00-12h00 15h00-18h00$Jours Fériés : 9h00-12h00 15h00-18h00","48.30648","1.25408"
"5465","3700","Brigade de proximité de Chavanges","8 Rue du Bois 10330 CHAVANGES","cob.brienne-le-chateau@gendarmerie.interieur.gouv.fr","03 25 92 10 07","10","1","aucun","corg.ggd10@gendarmerie.interieur.gouv.fr","1012498",,"48.50833","4.57498"
"5466","2557","Brigade de proximité de Champagne-en-Valromey","160 Route du Col de Richemont 01260 CHAMPAGNE EN VALROMEY","cob.culoz-beon@gendarmerie.interieur.gouv.fr","04 79 87 60 05","01","1","aucun","corg.ggd01@gendarmerie.interieur.gouv.fr","1008597",,"45.90681","5.68248"
"7148","2610","Brigade territoriale autonome de Bourg-Saint-Andéol","15 Avenue du Général de Gaulle 07700 BOURG ST ANDEOL","bta.bourg-st-andeol@gendarmerie.interieur.gouv.fr","04 75 54 50 18","07","1","aucun","corg.ggd07@gendarmerie.interieur.gouv.fr","1008681","$Lundi : 8h00-12h00 14h00-18h00$Mardi : 8h00-12h00 14h00-18h00$Mercredi : 8h00-12h00 14h00-18h00$Jeudi : 8h00-12h00 14h00-18h00$Vendredi : 8h00-12h00 14h00-18h00$Samedi : 8h00-12h00 14h00-18h00$Dimanche : 9h00-12h00 15h00-18h00$Jours Fériés : 9h00-12h00 15h00-18h00","44.37945","4.64534"
"7147","2628","Brigade de proximité de Ruoms","18 Avenue de la Gare 07120 RUOMS","cob.vallon-pont-d-arc@gendarmerie.interieur.gouv.fr","04 75 39 61 09","07","1","aucun","corg.ggd07@gendarmerie.interieur.gouv.fr","1008702","$Vendredi : 8h00-12h00","44.45175","4.34632"
"7146","2625","Brigade de proximité de Joyeuse","253 Route de Lablachère 07260 JOYEUSE","cob.largentiere@gendarmerie.interieur.gouv.fr","04 75 39 40 64","07","1","aucun","corg.ggd07@gendarmerie.interieur.gouv.fr","1008689","Pas d'accueil du public","44.47776","4.23055"
"326","756","Brigade territoriale autonome de Dinan","14 bis Place Duguesclin 22100 DINAN","bta.dinan@gendarmerie.interieur.gouv.fr","02 96 87 74 00","22","1","aucun","corg.ggd22@gendarmerie.interieur.gouv.fr","1006201","$Lundi : 8h00-12h00 14h00-19h00$Mardi : 8h00-12h00 14h00-19h00$Mercredi : 8h00-12h00 14h00-19h00$Jeudi : 8h00-12h00 14h00-19h00$Vendredi : 8h00-12h00 14h00-19h00$Samedi : 8h00-12h00 14h00-19h00$Dimanche : 9h00-12h00 15h00-19h00$Jours Fériés : 9h00-12h00 15h00-19h00","48.45843","-2.0487"
"7145","2626","Brigade territoriale autonome de Lanarce","Le village 07660 LANARCE","bta.lanarce@gendarmerie.interieur.gouv.fr","04 66 69 46 01","07","1","aucun","corg.ggd07@gendarmerie.interieur.gouv.fr","1008695","$Lundi : 8h00-12h00 14h00-18h00$Mardi : 8h00-12h00 14h00-18h00$Mercredi : 8h00-12h00 14h00-18h00$Jeudi : 8h00-12h00 14h00-18h00$Vendredi : 8h00-12h00 14h00-18h00$Samedi : 8h00-12h00 14h00-18h00$Dimanche : 9h00-12h00 15h00-18h00$Jours Fériés : 9h00-12h00 15h00-18h00","44.7252","4.0073"
"7144","2617","Brigade territoriale autonome de Villeneuve-de-Berg","50 Rue de la Gendarmerie 07170 VILLENEUVE DE BERG","bta.villeneuve-de-berg@gendarmerie.interieur.gouv.fr","04 75 94 80 01","07","1","aucun","corg.ggd07@gendarmerie.interieur.gouv.fr","1008704","$Lundi : 8h00-12h00 14h00-18h00$Mardi : 8h00-12h00 14h00-18h00$Mercredi : 8h00-12h00 14h00-18h00$Jeudi : 8h00-12h00 14h00-18h00$Vendredi : 8h00-12h00 14h00-18h00$Samedi : 8h00-12h00 14h00-18h00$Dimanche : 9h00-12h00 15h00-18h00$Jours Fériés : 9h00-12h00 15h00-18h00","44.56205","4.50593"
"5662","28677","Brigade de proximité de La-Couture","333 Rue de Rietz 62136 LA COUTURE","cob.laventie@gendarmerie.interieur.gouv.fr","03 21 63 08 17","62","1","aucun","corg.ggd62@gendarmerie.interieur.gouv.fr","1013618","$Lundi : 8h00-12h00 14h00-18h00$Mercredi : 8h00-12h00 14h00-18h00$Vendredi : 8h00-12h00 14h00-18h00$Samedi : 8h00-12h00 14h00-18h00","50.58156","2.70962"
"5663","268","Brigade de proximité de Colembert","2 Rue du Blanc Mont 62142 COLEMBERT","cob.desvres@gendarmerie.interieur.gouv.fr","03 21 33 31 17","62","1","aucun","corg.ggd62@gendarmerie.interieur.gouv.fr","1013636","Pas d'accueil du public","50.74695","1.84873"
"334","764","Brigade de proximité de Plancoët","64 Rue de l'Abbaye 22130 PLANCOET","cob.plancoet@gendarmerie.interieur.gouv.fr","02 96 84 13 99","22","1","aucun","corg.ggd22@gendarmerie.interieur.gouv.fr","1006209","$Lundi : 8h00-12h00 14h00-18h00$Mercredi : 8h00-12h00 14h00-18h00$Vendredi : 8h00-12h00 14h00-18h00$Dimanche : 9h00-12h00 15h00-18h00$Jours Fériés : 9h00-12h00 15h00-18h00","48.51838","-2.22553"
"336","767","Brigade de proximité de Beaussais-sur-Mer","5 Rue de Jolliet PLOUBALAY 22650 BEAUSSAIS SUR MER","cob.plancoet@gendarmerie.interieur.gouv.fr","02 96 27 20 17","22","1","aucun","corg.ggd22@gendarmerie.interieur.gouv.fr","1006210","$Mardi : 8h00-12h00 14h00-18h00$Jeudi : 8h00-12h00 14h00-18h00$Samedi : 8h00-12h00 14h00-18h00$Jours Fériés : 9h00-12h00 15h00-18h00","48.57914","-2.14636"
"7141","2580","Brigade de proximité de Divonne-les-Bains","44 Avenue des Voirons 01220 DIVONNE LES BAINS","cob.gex@gendarmerie.interieur.gouv.fr","04 50 20 00 20","01","1","aucun","corg.ggd01@gendarmerie.interieur.gouv.fr","1008610","$Lundi : 14h00-18h00$Mercredi : 14h00-18h00","46.34777","6.13699"
"7138","2555","Brigade de proximité de Belley","Caserne Sibuet 9 Rue Mante 01300 BELLEY","cob.belley@gendarmerie.interieur.gouv.fr","04 79 81 69 00","01","1","aucun","corg.ggd01@gendarmerie.interieur.gouv.fr","1008593","$Lundi : 8h00-12h00 14h00-18h00$Mardi : 8h00-12h00 14h00-18h00$Mercredi : 8h00-12h00 14h00-18h00$Jeudi : 8h00-12h00 14h00-18h00$Vendredi : 8h00-12h00 14h00-18h00$Samedi : 8h00-12h00 14h00-18h00$Dimanche : 9h00-12h00 15h00-18h00$Jours Fériés : 9h00-12h00 15h00-18h00","45.75554","5.68275"
"7136","2598","Brigade de proximité de Vonnas","123 Rue Aimable Chaynes 01540 VONNAS","cob.chatillon-sur-chalaronne@gendarmerie.interieur.gouv.fr","04 74 50 02 17","01","1","aucun","corg.ggd01@gendarmerie.interieur.gouv.fr","1008575","Non renseigné dans Pulsar","46.21878","4.9902"
"4626","3926","Brigade de proximité d'Issy-l'Évêque","14 Route de Grury 71760 ISSY L EVEQUE","cob.bourbon-lancy@gendarmerie.interieur.gouv.fr","03 85 24 93 30","71","1","aucun","corg.ggd71@gendarmerie.interieur.gouv.fr","1012899","$Lundi : 8h00-12h00","46.70703","3.96992"
"7135","2534","Brigade de proximité de Thizy-les-Bourgs","25 Rue Gambetta 69240 THIZY LES BOURGS","cob.thizy-les-bourgs@gendarmerie.interieur.gouv.fr","04 74 64 01 26","69","1","aucun","corg.ggd69@gendarmerie.interieur.gouv.fr","1008529","$Lundi : 8h00-12h00 14h00-18h30$Mardi : 8h00-12h00 14h00-18h30$Mercredi : 8h00-12h00 14h00-18h30$Jeudi : 8h00-12h00 14h00-18h30$Vendredi : 8h00-12h00 14h00-18h30$Samedi : 8h00-12h00 14h00-18h30$Dimanche : 9h00-12h00 15h00-18h00$Jours Fériés : 9h00-12h00 15h00-18h00","46.02866","4.31528"
"350","786","Brigade territoriale autonome de Perros-Guirec","45 Rue des Frères Le Montréer 22700 PERROS GUIREC","bta.perros-guirec@gendarmerie.interieur.gouv.fr","02 96 23 20 17","22","1","aucun","corg.ggd22@gendarmerie.interieur.gouv.fr","1006243","$Lundi : 8h00-12h00 14h00-18h00$Mardi : 8h00-12h00 14h00-18h00$Mercredi : 8h00-12h00 14h00-18h00$Jeudi : 8h00-12h00 14h00-18h00$Vendredi : 8h00-12h00 14h00-18h00$Samedi : 8h00-12h00 14h00-18h00$Dimanche : 9h00-12h00 15h00-18h00$Jours Fériés : 9h00-12h00 15h00-18h00","48.81232","-3.44928"
"7133","2504","Brigade de proximité de Sathonay-Camp","36 Boulevard de l'Ouest 69580 SATHONAY CAMP","cob.fontaines-sur-saone@gendarmerie.interieur.gouv.fr","04 78 22 03 02","69","1","aucun","corg.ggd69@gendarmerie.interieur.gouv.fr","1008478","Pas d'accueil du public","45.820698","4.868329"
"7132","2451","Brigade de proximité de Castelsarrasin","61 Avenue de Courbieu 82100 CASTELSARRASIN","cob.moissac@gendarmerie.interieur.gouv.fr","05 63 32 81 40","82","1","aucun","corg.ggd82@gendarmerie.interieur.gouv.fr","1005259","$Jeudi : 9h00-12h00$Jours Fériés : 9h00-12h00","44.04495","1.10133"
"5940","3429","Brigade de proximité de Saint-Dié-des-Vosges","26 Rue de Foucharupt 88100 ST DIE DES VOSGES","cob.st-die-des-vosges@gendarmerie.interieur.gouv.fr","03 29 56 21 31","88","1","aucun","corg.ggd88@gendarmerie.interieur.gouv.fr","1011740","Pas d'accueil du public","48.27943","6.95174"
"5941","3432","Brigade de proximité de Fraize","6 Rue Nicolas Geliot 88230 FRAIZE","cob.fraize@gendarmerie.interieur.gouv.fr","03 29 50 31 17","88","1","aucun","corg.ggd88@gendarmerie.interieur.gouv.fr","1011744","$Lundi : 8h00-12h00 14h00-18h00$Mardi : 8h00-12h00 14h00-18h00$Mercredi : 8h00-12h00 14h00-18h00$Jeudi : 8h00-12h00 14h00-18h00$Vendredi : 8h00-12h00 14h00-18h00$Samedi : 8h00-12h00 14h00-18h00$Dimanche : 9h00-12h00 15h00-18h00$Jours Fériés : 9h00-12h00 15h00-18h00","48.18629","6.99908"
"5942","3431","Brigade de proximité de Corcieux","244 Route de La Houssière 88430 CORCIEUX","cob.fraize@gendarmerie.interieur.gouv.fr","03 29 50 66 17","88","1","aucun","corg.ggd88@gendarmerie.interieur.gouv.fr","1011745","$Lundi : 14h00-18h00$Mardi : 14h00-18h00$Mercredi : 14h00-18h00$Jeudi : 14h00-18h00$Vendredi : 14h00-18h00$Samedi : 8h00-12h00","48.17535","6.88091"
"364","816","Brigade de proximité de Guipavas","72 Rue de Paris 29490 GUIPAVAS","cob.guipavas@gendarmerie.interieur.gouv.fr","02 98 84 60 25","29","1","aucun","corg.ggd29@gendarmerie.interieur.gouv.fr","1006300","$Lundi : 8h00-12h00 14h00-18h00$Mardi : 8h00-12h00 14h00-18h00$Mercredi : 8h00-12h00 14h00-18h00$Jeudi : 8h00-12h00 14h00-18h00$Vendredi : 8h00-12h00 14h00-18h00$Samedi : 8h00-12h00 14h00-18h00$Dimanche : 9h00-12h00 15h00-18h00$Jours Fériés : 9h00-12h00 15h00-18h00","48.43518","-4.39511"
"365","818","Brigade territoriale autonome de Landerneau","14 Rue Henri Dunant 29800 LANDERNEAU","bta.landerneau@gendarmerie.interieur.gouv.fr","02 98 85 00 82","29","1","aucun","corg.ggd29@gendarmerie.interieur.gouv.fr","1006335","$Lundi : 8h00-12h00 14h00-18h00$Mardi : 8h00-12h00 14h00-18h00$Mercredi : 8h00-12h00 14h00-18h00$Jeudi : 8h00-12h00 14h00-18h00$Vendredi : 8h00-12h00 14h00-18h00$Samedi : 8h00-12h00 14h00-18h00$Dimanche : 9h00-12h00 15h00-18h00$Jours Fériés : 9h00-12h00 15h00-18h00","48.4553","-4.2562"
"5349","1242","Brigade de proximité d'Andouillé","24 Rue Ulphace Benoist 53240 ANDOUILLE","cob.port-brillet@gendarmerie.interieur.gouv.fr","02 43 26 18 10","53","1","aucun","corg.ggd53@gendarmerie.interieur.gouv.fr","1007570","$Lundi : 14h00-18h00$Mercredi : 14h00-18h00$Samedi : 14h00-18h00","48.17253","-0.78234"
"5350","3313","Brigade de proximité de Mars-la-Tour","5 Rue de la Gendarmerie 54800 MARS LA TOUR","cob.mars-la-tour@gendarmerie.interieur.gouv.fr","03 82 33 92 44","54","1","aucun","corg.ggd54@gendarmerie.interieur.gouv.fr","1011567","$Lundi : 8h00-12h00 14h00-18h00$Mardi : 8h00-12h00 14h00-18h00$Mercredi : 8h00-12h00 14h00-18h00$Jeudi : 8h00-12h00 14h00-18h00$Vendredi : 8h00-12h00 14h00-18h00$Samedi : 8h00-12h00 14h00-18h00$Dimanche : 9h00-12h00 15h00-18h00$Jours Fériés : 9h00-12h00 15h00-18h00","49.10046","5.88937"
"370","823","Brigade de proximité de Saint-Renan","5 Route de Plouzané 29290 ST RENAN","cob.st-renan@gendarmerie.interieur.gouv.fr","02 98 84 21 13","29","1","aucun","corg.ggd29@gendarmerie.interieur.gouv.fr","1006311","$Lundi : 8h00-12h00 14h00-18h00$Mardi : 8h00-12h00 14h00-18h00$Mercredi : 8h00-12h00 14h00-18h00$Jeudi : 8h00-12h00 14h00-18h00$Vendredi : 8h00-12h00 14h00-18h00$Samedi : 8h00-12h00 14h00-18h00$Dimanche : 9h00-12h00 15h00-18h00$Jours Fériés : 9h00-12h00 15h00-18h00","48.42369","-4.62791"
"7126","2304","Brigade de proximité de Biars-sur-Cère","114 Avenue de la République 46130 BIARS SUR CERE","cob.st-cere@gendarmerie.interieur.gouv.fr","05 65 38 40 17","46","1","aucun","corg.ggd46@gendarmerie.interieur.gouv.fr","1005046","$Mardi : 14h00-18h00$Jeudi : 14h00-18h00","44.91856","1.83956"
"5866","3314","Brigade de proximité de Piennes","11 Rue Jean Moulin 54490 PIENNES","cob.audun-le-roman@gendarmerie.interieur.gouv.fr","03 82 21 90 21","54","1","aucun","corg.ggd54@gendarmerie.interieur.gouv.fr","1011572","$Jeudi : 8h00-12h00 14h00-18h00","49.30648","5.79226"
"5867","28352","Brigade de proximité de Lexy","43 Rue de Longwy 54720 LEXY","cob.lexy@gendarmerie.interieur.gouv.fr","03 82 23 30 39","54","1","aucun","corg.ggd54@gendarmerie.interieur.gouv.fr","1011575","$Lundi : 8h00-12h00 14h00-18h00$Mardi : 8h00-12h00 14h00-18h00$Mercredi : 8h00-12h00 14h00-18h00$Jeudi : 8h00-12h00 14h00-18h00$Vendredi : 8h00-12h00 14h00-18h00$Samedi : 8h00-12h00 14h00-18h00$Dimanche : 9h00-12h00 15h00-18h00$Jours Fériés : 9h00-12h00 15h00-18h00","49.50643","5.73488"
"376","832","Brigade de proximité de Huelgoat","8 Route des Carrières 29690 HUELGOAT","cob.carhaix-plouguer@gendarmerie.interieur.gouv.fr","02 98 99 71 45","29","1","aucun","corg.ggd29@gendarmerie.interieur.gouv.fr","1006324","$Lundi : 8h00-12h00$Jeudi : 8h00-12h00","48.36696","-3.74979"
"7125","2308","Brigade de proximité de Livernon","133 Rue Juskiewenski 46320 LIVERNON","cob.livernon@gendarmerie.interieur.gouv.fr","0565405517","46","1","aucun","corg.ggd46@gendarmerie.interieur.gouv.fr","1005041","$Mardi : 8h00-12h00 14h00-18h00$Vendredi : 8h00-12h00 14h00-18h00$Dimanche : 9h00-12h00 15h00-18h00","44.64783","1.84382"
"7124","2294","Brigade de proximité de Limogne-en-Quercy","Lieu-dit Bel Air 46260 LIMOGNE EN QUERCY","cob.st-gery-vers@gendarmerie.interieur.gouv.fr","05 65 31 50 17","46","1","aucun","corg.ggd46@gendarmerie.interieur.gouv.fr","1005034","$Mercredi : 14h00-18h00$Samedi : 14h00-18h00","44.39511","1.76299"
"7122","2277","Brigade de proximité de Miélan","Rue Edouard Dagé 32170 MIELAN","cob.mirande@gendarmerie.interieur.gouv.fr","05 62 67 50 17","32","1","aucun","corg.ggd32@gendarmerie.interieur.gouv.fr","1004961","$Jeudi : 8h00-12h00","43.4352","0.30845"
"381","840","Brigade de proximité de Lanmeur","2 Rue de Pont-Menou 29620 LANMEUR","cob.plourin-les-morlaix@gendarmerie.interieur.gouv.fr","02 98 67 51 07","29","1","aucun","corg.ggd29@gendarmerie.interieur.gouv.fr","1006347","$Lundi : 8h00-12h00 14h00-18h00$Mercredi : 8h00-12h00 14h00-18h00$Vendredi : 14h00-18h00$Samedi : 8h00-12h00","48.64517","-3.71054"
"383","842","Brigade de proximité de Plouescat","18 Rue de Saint-Pol-de-Léon 29430 PLOUESCAT","cob.st-pol-de-leon@gendarmerie.interieur.gouv.fr","02 98 69 60 07","29","1","aucun","corg.ggd29@gendarmerie.interieur.gouv.fr","1006355","$Mardi : 14h00-18h00$Jeudi : 14h00-18h00$Samedi : 14h00-18h00","48.65797","-4.17163"
"385","844","Brigade de proximité de Plouzévédé","69 Rue de Berven 29440 PLOUZEVEDE","cob.st-pol-de-leon@gendarmerie.interieur.gouv.fr","02 98 69 98 06","29","1","aucun","corg.ggd29@gendarmerie.interieur.gouv.fr","1006356","$Lundi : 8h00-12h00$Mercredi : 14h00-18h00$Vendredi : 14h00-18h00","48.6027","-4.11372"
"7120","2246","Brigade territoriale autonome d'Auch","Caserne Général Lagrange 2 Rue Jean de la Fontaine 32000 AUCH","bta.auch@gendarmerie.interieur.gouv.fr","05 62 60 50 00","32","1","aucun","corg.ggd32@gendarmerie.interieur.gouv.fr","1004957","$Lundi : 8h00-12h00 14h00-18h00$Mardi : 8h00-12h00 14h00-18h00$Mercredi : 8h00-12h00 14h00-18h00$Jeudi : 8h00-12h00 14h00-18h00$Vendredi : 8h00-12h00 14h00-18h00$Samedi : 8h00-12h00 14h00-18h00$Dimanche : 9h00-12h00 15h00-18h00$Jours Fériés : 9h00-12h00 15h00-18h00","43.64031","0.59601"
"7116","2183","Brigade de proximité de Marcillac-Vallon","1 bis Avenue de Malviès 12330 MARCILLAC VALLON","cob.marcillac-vallon@gendarmerie.interieur.gouv.fr","05 65 71 72 02","12","1","aucun","corg.ggd12@gendarmerie.interieur.gouv.fr","1004879","$Lundi : 8h00-12h00 14h00-18h00$Mardi : 8h00-12h00 14h00-18h00$Mercredi : 8h00-12h00 14h00-18h00$Jeudi : 8h00-12h00 14h00-18h00$Vendredi : 8h00-12h00 14h00-18h00$Samedi : 8h00-12h00 14h00-18h00$Dimanche : 9h00-12h00 15h00-18h00$Jours Fériés : 9h00-12h00 15h00-18h00","44.47348","2.46608"
"391","861","Brigade de proximité d'Elven","10 Avenue des Martyrs de la Résistance 56250 ELVEN","cob.questembert@gendarmerie.interieur.gouv.fr","02 97 53 31 06","56","1","aucun","corg.ggd56@gendarmerie.interieur.gouv.fr","1006419","$Lundi : 8h00-12h00 14h00-18h00$Mercredi : 8h00-12h00 14h00-18h00$Vendredi : 8h00-12h00 14h00-18h00","47.73708","-2.58313"
"7115","8674","Brigade de proximité de Castillon-en-Couserans","Les Vignes 09800 CASTILLON EN COUSERANS","cob.st-girons@gendarmerie.interieur.gouv.fr","05 61 96 70 17","09","1","aucun","corg.ggd09@gendarmerie.interieur.gouv.fr","1004826","$Lundi : 14h00-18h00$Mardi : 14h00-18h00$Vendredi : 14h00-18h00","42.92049","1.02967"
"5675","4319","Brigade territoriale autonome de Bouc-Bel-Air","Résidence Traverse-de-l'Oasis 151 Avenue du 8 Mai 1945 13320 BOUC BEL AIR","bta.bouc-bel-air@gendarmerie.interieur.gouv.fr","04 42 22 16 85","13","1","aucun","corg.ggd13@gendarmerie.interieur.gouv.fr","1009939","$Lundi : 8h00-12h00 14h00-18h00$Mardi : 8h00-12h00 14h00-18h00$Mercredi : 8h00-12h00 14h00-18h00$Jeudi : 8h00-12h00 14h00-18h00$Vendredi : 8h00-12h00 14h00-18h00$Samedi : 8h00-12h00 14h00-18h00$Dimanche : 9h00-12h00 15h00-18h00$Jours Fériés : 9h00-12h00 15h00-18h00","43.45198","5.41532"
"5676","4320","Brigade territoriale autonome de Trets","52 Avenue mirabeau 13530 TRETS","bta.trets@gendarmerie.interieur.gouv.fr","04 42 29 20 09","13","1","aucun","corg.ggd13@gendarmerie.interieur.gouv.fr","1009943","$Lundi : 8h00-12h00 14h00-18h00$Mardi : 8h00-12h00 14h00-18h00$Mercredi : 8h00-12h00 14h00-18h00$Jeudi : 8h00-12h00 14h00-18h00$Vendredi : 8h00-12h00 14h00-18h00$Samedi : 8h00-12h00 14h00-18h00$Dimanche : 9h00-12h00 15h00-18h00$Jours Fériés : 9h00-12h00 15h00-18h00","43.44855","5.68006"
"5656","1648","Brigade de proximité de Monflanquin","45 Avenue de la Libération 47150 MONFLANQUIN","cob.monflanquin@gendarmerie.interieur.gouv.fr","05 53 49 60 80","47","1","aucun","corg.ggd47@gendarmerie.interieur.gouv.fr","1004387","$Lundi : 8h00-12h00 14h00-18h00$Mardi : 8h00-12h00 14h00-18h00$Mercredi : 8h00-12h00 14h00-18h00$Jeudi : 8h00-12h00 14h00-18h00$Vendredi : 8h00-12h00 14h00-18h00$Samedi : 8h00-12h00 14h00-18h00$Dimanche : 9h00-12h00 15h00-18h00$Jours Fériés : 9h00-12h00 15h00-18h00","44.52915","0.76791"
"4625","3884","Brigade de proximité de Cluny","4 Route de la Roseraie 71250 CLUNY","cob.cluny@gendarmerie.interieur.gouv.fr","03 85 59 06 32","71","1","aucun","corg.ggd71@gendarmerie.interieur.gouv.fr","1012846","$Lundi : 8h00-12h00 14h00-18h00$Mardi : 8h00-12h00 14h00-18h00$Mercredi : 8h00-12h00 14h00-18h00$Jeudi : 8h00-12h00 14h00-18h00$Vendredi : 8h00-12h00 14h00-18h00$Samedi : 8h00-12h00 14h00-18h00$Dimanche : 9h00-12h00 15h00-18h00$Jours Fériés : 9h00-12h00 15h00-18h00","46.4344","4.66456"
"5547","3963","Brigade de proximité de Ligny-le-Châtel","1 Rue des Moulins 89144 LIGNY LE CHATEL","cob.seignelay@gendarmerie.interieur.gouv.fr","03 86 47 40 17","89","1","aucun","corg.ggd89@gendarmerie.interieur.gouv.fr","1012960","$Mardi : 8h00-12h00$Jeudi : 8h00-12h00","47.89977","3.7565"
"5548","3967","Brigade de proximité de Toucy","44 Avenue Aristide Briand 89130 TOUCY","cob.toucy@gendarmerie.interieur.gouv.fr","03 86 44 11 17","89","1","aucun","corg.ggd89@gendarmerie.interieur.gouv.fr","1012965","$Lundi : 8h00-12h00 14h00-18h00$Mardi : 8h00-12h00 14h00-18h00$Mercredi : 8h00-12h00 14h00-18h00$Jeudi : 8h00-12h00 14h00-18h00$Vendredi : 8h00-12h00 14h00-18h00$Samedi : 8h00-12h00 14h00-18h00$Dimanche : 9h00-12h00 15h00-18h00$Jours Fériés : 9h00-12h00 15h00-18h00","47.74138","3.29103"
"5935","3422","Brigade de proximité de Saulxures-sur-Moselotte","78 Allée de la Charme 88290 SAULXURES SUR MOSELOTTE","cob.saulxures-sur-moselotte@gendarmerie.interieur.gouv.fr","03 29 24 60 17","88","1","aucun","corg.ggd88@gendarmerie.interieur.gouv.fr","1011725","$Lundi : 8h00-12h00 14h00-18h00$Mardi : 8h00-12h00 14h00-18h00$Mercredi : 8h00-12h00 14h00-18h00$Jeudi : 8h00-12h00 14h00-18h00$Vendredi : 8h00-12h00 14h00-18h00$Samedi : 8h00-12h00 14h00-18h00$Dimanche : 9h00-12h00 15h00-18h00$Jours Fériés : 9h00-12h00 15h00-18h00","47.95095","6.77816"
"7113","2163","Brigade de proximité de Prat-Bonrepaux","64 Route Nationale 09160 PRAT BONREPAUX","cob.prat-bonrepaux@gendarmerie.interieur.gouv.fr","05 61 96 61 34","09","1","aucun","corg.ggd09@gendarmerie.interieur.gouv.fr","1004833","$Lundi : 8h00-12h00 14h00-18h00$Mardi : 8h00-12h00 14h00-18h00$Mercredi : 8h00-12h00 14h00-18h00$Jeudi : 8h00-12h00 14h00-18h00$Vendredi : 8h00-12h00 14h00-18h00$Samedi : 8h00-12h00 14h00-18h00$Dimanche : 9h00-12h00 15h00-18h00$Jours Fériés : 9h00-12h00 15h00-18h00","43.031498","1.022172"
"4624","3797","Brigade de proximité de Pontailler-sur-Saône","10 Rue de Franche-Comté 21270 PONTAILLER SUR SAONE","cob.mirebeau-sur-beze@gendarmerie.interieur.gouv.fr","03 80 36 12 85","21","1","aucun","cog.ggd21@gendarmerie.interieur.gouv.fr","1012693","$Lundi : 14h00-18h00$Mercredi : 8h00-12h00 14h00-18h00$Vendredi : 8h00-12h00","47.3038","5.42035"
"411","892","Brigade de proximité de Josselin","1 Rue des Carouges 56120 JOSSELIN","cob.josselin@gendarmerie.interieur.gouv.fr","02 97 22 20 26","56","1","aucun","corg.ggd56@gendarmerie.interieur.gouv.fr","1006466","$Lundi : 8h00-12h00 14h00-18h00$Mardi : 8h00-12h00 14h00-18h00$Mercredi : 8h00-12h00 14h00-18h00$Jeudi : 8h00-12h00 14h00-18h00$Vendredi : 8h00-12h00 14h00-18h00$Samedi : 8h00-12h00 14h00-18h00$Dimanche : 9h00-12h00 15h00-18h00$Jours Fériés : 9h00-12h00 15h00-18h00","47.95961","-2.54474"
"412","893","Brigade de proximité de Malestroit","16 Rue de la Gare 56140 MALESTROIT","cob.guer-coetquidan@gendarmerie.interieur.gouv.fr","02 97 75 20 18","56","1","aucun","corg.ggd56@gendarmerie.interieur.gouv.fr","1006464","$Lundi : 8h00-12h00 14h00-18h00$Mardi : 8h00-12h00$Jeudi : 8h00-12h00 14h00-18h00$Samedi : 14h00-18h00","47.80854","-2.39165"
"7101","2039","Brigade de proximité de Chambon-sur-Voueize","Quai Aimé Manairaud 23170 CHAMBON SUR VOUEIZE","cob.gouzon@gendarmerie.interieur.gouv.fr","05 55 82 12 17","23","1","aucun","corg.ggd23@gendarmerie.interieur.gouv.fr","1005934","Pas d'accueil du public","46.18707","2.42459"
"7102","2108","Brigade de proximité de Barbazan","Village 31510 BARBAZAN","cob.st-gaudens@gendarmerie.interieur.gouv.fr","05 61 88 30 17","31","1","aucun","cog.ggd31@gendarmerie.interieur.gouv.fr","1004743","$Mardi : 8h00-12h00 14h00-18h00$Jeudi : 8h00-12h00 14h00-18h00$Vendredi : 8h00-12h00 14h00-18h00$Jours Fériés : 9h00-12h00 15h00-18h00","43.03312","0.62181"
"417","900","Brigade territoriale autonome de Pontivy","Quartier Clisson 1 Rue Julien Guidard 56300 PONTIVY","bta.pontivy@gendarmerie.interieur.gouv.fr","02 97 25 00 75","56","1","aucun","corg.ggd56@gendarmerie.interieur.gouv.fr","1006475","$Lundi : 8h00-12h00 14h00-18h00$Mardi : 8h00-12h00 14h00-18h00$Mercredi : 8h00-12h00 14h00-18h00$Jeudi : 8h00-12h00 14h00-18h00$Vendredi : 8h00-12h00 14h00-18h00$Samedi : 8h00-12h00 14h00-18h00$Dimanche : 9h00-12h00 15h00-18h00$Jours Fériés : 9h00-12h00 15h00-18h00","48.06723","-2.971424"
"420","904","Brigade de proximité de Gourin","2 Rue Saint Philibert 56110 GOURIN","cob.le-faouet@gendarmerie.interieur.gouv.fr","02 97 23 43 07","56","1","aucun","corg.ggd56@gendarmerie.interieur.gouv.fr","1006482","$Lundi : 14h00-18h00$Mercredi : 14h00-18h00$Vendredi : 14h00-18h00","48.140205","-3.5931153"
"7109","2149","Brigade de proximité du Fossat","2 Rue Simone VEIL 09130 LE FOSSAT","cob.le-fossat@gendarmerie.interieur.gouv.fr","05 61 68 50 17","09","1","aucun","corg.ggd09@gendarmerie.interieur.gouv.fr","1004817","$Lundi : 8h00-12h00 14h00-18h00$Mardi : 8h00-12h00 14h00-18h00$Mercredi : 8h00-12h00 14h00-18h00$Jeudi : 8h00-12h00 14h00-18h00$Vendredi : 8h00-12h00 14h00-18h00$Samedi : 8h00-12h00 14h00-18h00$Dimanche : 15h00-18h00$Jours Fériés : 15h00-18h00","43.169327","1.412526"
"7107","2121","Brigade territoriale autonome de Montgiscard","8 Rue campolongo Tapogliano 31450 MONTGISCARD","bta.montgiscard@gendarmerie.interieur.gouv.fr","05 34 66 70 40","31","1","aucun","cog.ggd31@gendarmerie.interieur.gouv.fr","1004770","$Lundi : 8h00-12h00 14h00-18h00$Mardi : 8h00-12h00 14h00-18h00$Mercredi : 8h00-12h00 14h00-18h00$Jeudi : 8h00-12h00 14h00-18h00$Vendredi : 8h00-12h00 14h00-18h00$Samedi : 8h00-12h00 14h00-18h00$Dimanche : 9h00-12h00 15h00-18h00$Jours Fériés : 9h00-12h00 15h00-18h00","43.45619","1.58025"
"7106","2112","Brigade de proximité de Montréjeau","13 bis Avenue de Mazères 31210 MONTREJEAU","cob.st-gaudens@gendarmerie.interieur.gouv.fr","05 61 94 52 40","31","1","aucun","cog.ggd31@gendarmerie.interieur.gouv.fr","1004744","$Lundi : 8h00-12h00 14h00-18h00$Mercredi : 8h00-12h00 14h00-18h00$Samedi : 8h00-12h00 14h00-18h00$Jours Fériés : 9h00-12h00 15h00-18h00","43.08254","0.56271"
"7104","2096","Brigade de proximité de Montesquieu-Volvestre","19 Avenue Simon de la Loubère 31310 MONTESQUIEU VOLVESTRE","cob.carbonne@gendarmerie.interieur.gouv.fr","05 61 90 40 17","31","1","aucun","cog.ggd31@gendarmerie.interieur.gouv.fr","1004731","$Mardi : 8h00-12h00$Mercredi : 16h00-18h00$Vendredi : 16h00-18h00","43.21449","1.22231"
"429","930","Brigade de proximité de Tilly-sur-Seulles","10 Rue de Balleroy 14250 TILLY SUR SEULLES","cob.tilly-sur-seulles@gendarmerie.interieur.gouv.fr","02 31 08 34 30","14","1","aucun","corg.ggd14@gendarmerie.interieur.gouv.fr","1007013","$Lundi : 8h00-12h00$Mercredi : 14h00-18h00$Vendredi : 14h00-18h00$Dimanche : 9h00-12h00$Jours Fériés : 9h00-12h00 15h00-18h00","49.17526","-0.62766"
"431","932","Brigade de proximité de Villers-Bocage","2 Rue des Sauts-Cabris 14310 VILLERS BOCAGE","cob.tilly-sur-seulles@gendarmerie.interieur.gouv.fr","02 31 08 35 88","14","1","aucun","corg.ggd14@gendarmerie.interieur.gouv.fr","1007015","$Mardi : 8h00-12h00 14h00-18h00$Jeudi : 8h00-12h00 14h00-18h00$Samedi : 8h00-12h00 14h00-18h00$Jours Fériés : 9h00-12h00 15h00-18h00","49.07742","-0.66031"
"433","936","Brigade de proximité de Balleroy-sur-Drôme","Les Aiguillières BALLEROY 14490 BALLEROY SUR DROME","cob.isigny-sur-mer@gendarmerie.interieur.gouv.fr","02 31 51 38 40","14","1","aucun","corg.ggd14@gendarmerie.interieur.gouv.fr","1007010","$Mardi : 14h00-18h00$Jeudi : 8h00-12h00$Samedi : 8h00-12h00","49.18586","-0.82837"
"434","937","Brigade de proximité de Caumont-sur-Aure","Route de Villers CAUMONT L EVENTE 14240 CAUMONT SUR AURE","cob.tilly-sur-seulles@gendarmerie.interieur.gouv.fr","02 31 08 34 45","14","1","aucun","corg.ggd14@gendarmerie.interieur.gouv.fr","1007014","$Lundi : 14h00-18h00$Mercredi : 8h00-12h00$Vendredi : 8h00-12h00$Dimanche : 15h00-18h00$Jours Fériés : 9h00-12h00 15h00-18h00","49.09177","-0.79673"
"7098","2015","Brigade de proximité de Sornac","2 Chemin du Père Ballet 19290 SORNAC","cob.meymac@gendarmerie.interieur.gouv.fr","05 55 94 60 01","19","1","aucun","corg.ggd19@gendarmerie.interieur.gouv.fr","1005873","$Mardi : 8h00-12h00","45.66857","2.19709"
"437","941","Brigade de proximité de Trévières","333 Rue de Bayeux 14710 TREVIERES","cob.isigny-sur-mer@gendarmerie.interieur.gouv.fr","02 31 51 66 80","14","1","aucun","corg.ggd14@gendarmerie.interieur.gouv.fr","1007011","$Lundi : 14h00-18h00$Mercredi : 14h00-18h00$Vendredi : 8h00-12h00","49.30801","-0.89869"
"7096","2005","Brigade de proximité d'Objat","Route de Bridelache 19130 OBJAT","cob.objat@gendarmerie.interieur.gouv.fr","05 55 25 50 02","19","1","aucun","corg.ggd19@gendarmerie.interieur.gouv.fr","1005847","$Lundi : 8h00-12h00 14h00-18h00$Mardi : 8h00-12h00 14h00-18h00$Mercredi : 8h00-12h00 14h00-18h00$Jeudi : 8h00-12h00 14h00-18h00$Vendredi : 8h00-12h00 14h00-18h00$Samedi : 8h00-12h00 14h00-18h00$Dimanche : 9h00-12h00 15h00-18h00$Jours Fériés : 9h00-12h00 15h00-18h00","45.24943","1.41244"
"444","956","Brigade de proximité de Mézidon-Vallée-d'Auge","1 Rue de la Futaie MEZIDON CANON 14270 MEZIDON VALLEE D AUGE","cob.mezidon-vallee-d-auge@gendarmerie.interieur.gouv.fr","02 31 42 63 25","14","1","aucun","corg.ggd14@gendarmerie.interieur.gouv.fr","1007046","$Lundi : 8h00-12h00 14h00-19h00$Mardi : 8h00-12h00 14h00-19h00$Mercredi : 8h00-12h00 14h00-19h00$Jeudi : 8h00-12h00 14h00-19h00$Vendredi : 8h00-12h00 14h00-19h00$Samedi : 8h00-12h00 14h00-19h00$Dimanche : 9h00-12h00 15h00-19h00$Jours Fériés : 9h00-12h00 15h00-19h00","49.07483","-0.06213"
"445","957","Brigade de proximité d'Orbec","4 Chemin de Saint-Martin-de-Bienfaite 14290 ORBEC","cob.orbec@gendarmerie.interieur.gouv.fr","02 31 31 89 76","14","1","aucun","corg.ggd14@gendarmerie.interieur.gouv.fr","1007049","$Lundi : 8h00-12h00 14h00-18h00$Mardi : 8h00-12h00 14h00-18h00$Mercredi : 8h00-12h00 14h00-18h00$Jeudi : 8h00-12h00 14h00-18h00$Vendredi : 8h00-12h00 14h00-18h00$Samedi : 8h00-12h00 14h00-18h00$Dimanche : 9h00-12h00 15h00-18h00$Jours Fériés : 9h00-12h00 15h00-18h00","49.02223","0.40157"
"446","958","Brigade de proximité de Saint-Pierre-en-Auge","17 Rue des Jonquilles ST PIERRE SUR DIVES 14170 ST PIERRE EN AUGE","cob.mezidon-vallee-d-auge@gendarmerie.interieur.gouv.fr","02 31 42 63 40","14","1","aucun","corg.ggd14@gendarmerie.interieur.gouv.fr","1007047","$Lundi : 8h00-12h00$Mardi : 8h00-12h00$Mercredi : 8h00-12h00$Jeudi : 8h00-12h00$Vendredi : 8h00-12h00$Samedi : 8h00-12h00","49.023132","-0.02148"
"5012","2579","Brigade de proximité de Collonges","162 Rue de l'Eglise 01550 COLLONGES","cob.thoiry@gendarmerie.interieur.gouv.fr","04 50 59 63 03","01","1","aucun","corg.ggd01@gendarmerie.interieur.gouv.fr","1008617","Pas d'accueil du public","46.13853","5.90591"
"5013","2694","Brigade de proximité de Rémuzat","Quartier Les Faysses 26510 REMUZAT","cob.remuzat@gendarmerie.interieur.gouv.fr","04 75 27 85 44","26","1","aucun","corg.ggd26@gendarmerie.interieur.gouv.fr","1008781","$Lundi : 8h00-12h00$Mardi : 8h00-12h00$Mercredi : 8h00-12h00$Jeudi : 8h00-12h00$Vendredi : 8h00-12h00$Samedi : 8h00-12h00","44.42065","5.35997"
"5014","1143","Brigade de proximité de Guémené-Penfao","Avenue de la Victoire 44290 GUEMENE PENFAO","cob.blain@gendarmerie.interieur.gouv.fr","02 40 79 20 17","44","1","aucun","cog.ggd44@gendarmerie.interieur.gouv.fr","1007362","$Lundi : 14h00-18h00$Mercredi : 14h00-18h00$Samedi : 14h00-18h00","47.62842","-1.83564"
"454","972","Brigade de proximité des Monts-d'Aunay","3 Route de Condé AUNAY SUR ODON 14260 LES MONTS D AUNAY","cob.les-monts-d-aunay@gendarmerie.interieur.gouv.fr","02 31 29 34 70","14","1","aucun","corg.ggd14@gendarmerie.interieur.gouv.fr","1007058","$Lundi : 8h00-12h00 14h00-18h00$Mardi : 8h00-12h00 14h00-18h00$Mercredi : 8h00-12h00 14h00-18h00$Jeudi : 8h00-12h00 14h00-18h00$Vendredi : 8h00-12h00 14h00-18h00$Samedi : 8h00-12h00 14h00-18h00$Dimanche : 9h00-12h00 15h00-18h00$Jours Fériés : 9h00-12h00 15h00-18h00","49.01735","-0.63078"
"455","973","Brigade de proximité de Souleuvre-en-Bocage","22 Rue Georges Brassens LE BENY BOCAGE 14350 SOULEUVRE EN BOCAGE","cob.les-monts-d-aunay@gendarmerie.interieur.gouv.fr","02 31 66 33 10","14","1","aucun","corg.ggd14@gendarmerie.interieur.gouv.fr","1007059","$Lundi : 8h00-12h00$Jeudi : 8h00-12h00$Samedi : 14h00-18h00","48.93483","-0.83964"
"7090","1923","Brigade de proximité de Ménigoute","11 Rue Saint-Marc 79340 MENIGOUTE","cob.parthenay@gendarmerie.interieur.gouv.fr","05 49 69 00 02","79","1","aucun","corg.ggd79@gendarmerie.interieur.gouv.fr","1005671","$Mardi : 14h00-18h00","46.49917","-0.05969"
"461","990","Brigade territoriale autonome de Carentan-les-Marais","32 Route d'Auvers CARENTAN 50500 CARENTAN LES MARAIS","bta.carentan-les-marais@gendarmerie.interieur.gouv.fr","02 33 71 73 30","50","1","aucun","corg.ggd50@gendarmerie.interieur.gouv.fr","1007094","$Lundi : 8h00-12h00 14h00-19h00$Mardi : 8h00-12h00 14h00-19h00$Mercredi : 8h00-12h00 14h00-19h00$Jeudi : 8h00-12h00 14h00-19h00$Vendredi : 8h00-12h00 14h00-19h00$Samedi : 8h00-12h00 14h00-19h00$Dimanche : 9h00-12h00 15h00-18h00$Jours Fériés : 9h00-12h00 15h00-18h00","49.29857","-1.26177"
